City_ID,City,Lat,Lng,Max Temp,Humidity,Cloudiness,Wind Speed,Country,Date
0,waitangi,-43.9535,-176.5597,11.01,83,79,1.34,NZ,1699675237
1,hamilton,39.1834,-84.5333,8.38,58,0,0.89,US,1699675238
2,port-aux-francais,-49.35,70.2167,3.16,82,100,13.64,TF,1699675238
3,bethel,41.3712,-73.414,6.94,76,10,0.45,US,1699675239
4,isafjordur,66.0755,-23.124,1.88,67,78,2.24,IS,1699675240
5,tufanganj,26.3167,89.6667,24.57,56,0,2.43,IN,1699675241
6,huilong,31.8111,121.655,14.41,61,97,6.08,CN,1699675242
7,andkhoy,36.9529,65.1238,15.77,31,99,6.73,AF,1699675242
8,adamstown,-25.066,-130.1015,22.68,84,4,4.34,PN,1699675242
9,port mathurin,-19.6833,63.4167,25.05,78,11,4.61,MU,1699675242
10,pagar alam,-4.0167,103.2667,28.61,62,100,1.43,ID,1699675243
11,petropavlovsk-kamchatsky,53.0452,158.6483,1.33,98,75,1.79,RU,1699675243
12,ribeira grande,38.5167,-28.7,19.59,87,1,10.27,PT,1699675243
13,thompson,55.7435,-97.8558,-0.91,86,100,5.66,CA,1699675243
14,chonchi,-42.6128,-73.8092,8.56,98,100,7.63,CL,1699675243
15,imbituba,-28.24,-48.6703,20.46,93,83,1.69,BR,1699675244
16,taoudenni,22.6783,-3.9836,22.26,19,0,4.18,ML,1699675244
17,bubaque,11.2833,-15.8333,28.36,62,100,4.35,GW,1699675244
18,margaret river,-33.95,115.0667,20.67,49,96,3.46,AU,1699675244
19,utrik,11.2278,169.8474,27.37,85,100,9.36,MH,1699675245
20,puerto ayora,-0.7393,-90.3518,24.19,90,12,4.02,EC,1699675245
21,punta arenas,-53.15,-70.9167,7.06,81,100,3.6,CL,1699675245
22,homer,59.6425,-151.5483,-1.79,91,96,2.6,US,1699675206
23,mananjary,-21.2167,48.3333,20.66,94,98,2.16,MG,1699675246
24,jamestown,42.097,-79.2353,7.06,81,100,2.06,US,1699675191
25,vatra dornei,47.35,25.3667,4.2,83,100,1.68,RO,1699675246
26,punta cana,18.5818,-68.4043,27.87,78,75,4.12,DO,1699675224
27,olonkinbyen,70.9221,-8.7187,1.24,85,100,3.47,SJ,1699675246
28,aasiaat,68.7098,-52.8699,-9.26,88,99,3.8,GL,1699675247
29,shenjiamen,29.9576,122.298,16.24,70,100,5.87,CN,1699675247
30,constantia,44.1833,28.65,13.38,84,98,5.57,RO,1699675247
31,uturoa,-16.7333,-151.4333,27.12,83,100,5.54,PF,1699675247
32,happy valley-goose bay,53.3168,-60.3315,-2.83,80,75,4.63,CA,1699675247
33,buala,-8.145,159.5921,27.41,82,100,0.69,SB,1699675248
34,taulaga,-11.0553,-171.0883,28.81,77,16,3.47,AS,1699675248
35,sur,22.5667,59.5289,27.34,62,13,5.07,OM,1699675248
36,grytviken,-54.2811,-36.5092,1.44,95,88,6.93,GS,1699675248
37,kassala,15.451,36.4,26.39,46,6,3.09,SD,1699675249
38,arraial do cabo,-22.9661,-42.0278,20.33,95,32,0.98,BR,1699675249
39,brisas de zicatela,15.8369,-97.0419,25.25,95,12,1.28,MX,1699675250
40,papatowai,-46.5619,169.4708,21.01,30,0,0.52,NZ,1699675251
41,codrington,-38.2667,141.9667,15.96,53,7,6.14,AU,1699675251
42,flying fish cove,-10.4217,105.6791,28.82,69,75,6.17,CX,1699675251
43,talnakh,69.4865,88.3972,-5.44,93,100,5.93,RU,1699675252
44,san patricio,28.017,-97.5169,15.91,88,100,4.73,US,1699675252
45,alofi,-19.0595,-169.9187,24.94,94,100,1.54,NU,1699675252
46,pacific grove,36.6177,-121.9166,13.64,72,65,0.89,US,1699675252
47,konarka,19.9,86.1167,27.22,50,8,3.2,IN,1699675253
48,albany,42.6001,-73.9662,6.48,70,36,2.63,US,1699675112
49,la ronge,55.1001,-105.2842,-1.86,86,100,4.63,CA,1699675253
50,hawaiian paradise park,19.5933,-154.9731,22.8,94,100,3.64,US,1699675253
51,kavaratti,10.5669,72.642,28.52,74,67,2.97,IN,1699675253
52,kone,-21.0595,164.8658,24.8,56,74,4.96,NC,1699675254
53,ilulissat,69.2167,-51.1,-6.99,68,100,7.2,GL,1699675254
54,minas de marcona,-15.2119,-75.1103,17.31,79,0,0.67,PE,1699675254
55,kalmunai,7.4167,81.8167,29.07,72,9,2.3,LK,1699675254
56,zaragoza,41.6561,-0.8773,13.58,71,100,2.06,ES,1699675237
57,sandnessjoen,66.0217,12.6316,-1.71,65,0,8.22,NO,1699675254
58,hobyo,5.3505,48.5268,24.51,88,100,2.26,SO,1699675255
59,wailua homesteads,22.0669,-159.378,27.24,87,39,2.68,US,1699675255
60,corumba,-19.0092,-57.6533,28.83,42,99,1.19,BR,1699675249
61,taro,-8.3862,115.28,27.0,47,34,0.21,ID,1699675255
62,la foa,-21.7108,165.8276,23.69,62,100,1.27,NC,1699675255
63,colonia,50.9333,6.95,7.76,91,75,5.14,DE,1699675068
64,longyearbyen,78.2186,15.6401,-10.09,73,75,4.63,SJ,1699675255
65,mana,5.6592,-53.7767,26.69,86,28,5.07,GF,1699675256
66,nova sintra,14.8667,-24.7167,22.11,71,46,7.02,CV,1699675256
67,crane,31.3974,-102.3501,10.87,55,100,5.01,US,1699675256
68,vale da amoreira,39.0697,-7.6985,15.27,99,100,2.52,PT,1699675256
69,saint-pierre,-21.3393,55.4781,25.32,83,100,2.57,RE,1699675256
70,ceeldheer,3.8488,47.1806,25.43,86,100,3.49,SO,1699675256
71,edinburgh of the seven seas,-37.0676,-12.3116,15.19,90,100,10.85,SH,1699675257
72,kayangel,8.0823,134.7173,29.21,76,74,5.89,PW,1699675257
73,kerikeri,-35.2268,173.9474,16.53,66,61,4.11,NZ,1699675257
74,hudiksvall,61.729,17.1036,4.17,97,100,4.7,SE,1699675257
75,buta,2.7858,24.73,21.08,99,91,0.44,CD,1699675257
76,port saint john's,-31.6229,29.5448,22.49,70,52,2.18,ZA,1699675257
77,kingston,17.997,-76.7936,28.53,86,20,8.75,JM,1699675071
78,barreirinha,-2.7933,-57.07,27.44,52,14,1.38,BR,1699675258
79,tiksi,71.6872,128.8694,-12.89,86,100,11.22,RU,1699675258
80,tamanrasset,22.785,5.5228,12.95,16,0,1.54,DZ,1699675152
81,mancio lima,-7.6142,-72.8958,25.04,94,0,2.06,BR,1699675258
82,trincomalee,8.5711,81.2335,27.94,87,12,2.38,LK,1699675258
83,atafu village,-8.5421,-172.5159,29.39,72,6,4.57,TK,1699675258
84,west island,-12.1568,96.8225,28.99,70,40,5.66,CC,1699675259
85,mount darwin,-16.7725,31.5838,18.07,75,4,3.22,ZW,1699675259
86,edinburg,55.9521,-3.1965,6.17,84,83,0.89,GB,1699675179
87,kourou,5.1552,-52.6478,26.49,86,22,3.69,GF,1699675259
88,yellowknife,62.456,-114.3525,1.9,100,75,3.09,CA,1699675005
89,ust-nera,64.5667,143.2,-27.65,95,14,2.2,RU,1699675259
90,nanping,26.645,118.1736,19.74,85,96,1.49,CN,1699675259
91,sao tome,0.3365,6.7273,25.87,87,100,6.46,ST,1699675260
92,hermanus,-34.4187,19.2345,15.87,83,100,0.94,ZA,1699675260
93,bataipora,-22.2953,-53.2711,28.39,43,84,3.33,BR,1699675260
94,ushuaia,-54.8,-68.3,4.81,87,100,2.06,AR,1699675001
95,lahij,13.1667,44.5833,23.12,67,13,1.32,YE,1699675260
96,kruisfontein,-34.0033,24.7314,17.03,86,51,9.79,ZA,1699675260
97,nikolayevsk-on-amure,53.1406,140.73,-7.2,74,100,5.07,RU,1699675260
98,pachino,36.7186,15.0907,19.46,70,100,9.92,IT,1699675261
99,iqaluit,63.7506,-68.5145,-6.15,79,100,4.63,CA,1699675211
100,polyarnyy,69.1989,33.4478,-1.33,86,87,7.03,RU,1699675261
101,blackmans bay,-43.0167,147.3167,16.07,41,32,4.85,AU,1699675261
102,bilibino,68.0546,166.4372,-23.56,100,81,2.36,RU,1699675261
103,la passe,45.5549,-0.8967,9.13,74,100,2.38,FR,1699675261
104,madras,13.0878,80.2785,29.98,72,40,3.09,IN,1699675158
105,bonthe,7.5264,-12.505,25.33,89,99,2.69,SL,1699675262
106,diego de almagro,-26.3667,-70.05,15.91,52,0,1.32,CL,1699675262
107,bereznik,62.8551,42.7072,1.93,97,100,3.48,RU,1699675262
108,ivdel',60.6911,60.4206,2.33,91,100,1.34,RU,1699675263
109,villarejo de salvanes,40.1666,-3.2728,12.12,96,97,7.93,ES,1699675263
110,san sebastian de la gomera,28.0916,-17.1133,23.2,56,0,4.63,ES,1699675263
111,alpine,32.835,-116.7664,14.77,32,0,0.0,US,1699675149
112,boguchany,58.3814,97.4531,-8.97,71,17,1.34,RU,1699675264
113,tazovsky,67.4667,78.7,-9.5,96,100,2.33,RU,1699675264
114,gounou gaya,9.6294,15.5132,26.13,64,100,1.98,TD,1699675264
115,invercargill,-46.4,168.35,18.9,57,2,4.02,NZ,1699675264
116,coquimbo,-29.9533,-71.3436,15.85,88,100,2.06,CL,1699674796
117,fisterra,42.9049,-9.2629,16.53,95,100,9.87,ES,1699675265
118,kapuskasing,49.4169,-82.4331,-2.95,93,100,3.09,CA,1699675212
119,vilyuchinsk,52.9306,158.4028,2.15,100,100,0.56,RU,1699675265
120,klyuchi,52.2667,79.1667,4.74,77,100,5.54,RU,1699675265
121,keflavik,64.0049,-22.5624,2.24,93,75,3.09,IS,1699675266
122,jamsankoski,61.919,25.1701,2.27,96,100,3.01,FI,1699675266
123,alvorada,-12.48,-49.1247,26.96,45,19,0.27,BR,1699675266
124,saint-denis,48.9167,2.3333,7.09,96,100,3.6,FR,1699675266
125,port alfred,-33.5906,26.891,18.99,88,69,3.58,ZA,1699675266
126,ha'il,27.5219,41.6907,13.01,62,0,2.06,SA,1699675267
127,east london,-33.0153,27.9116,18.52,88,40,7.13,ZA,1699675267
128,toliara,-23.35,43.6667,21.64,68,0,9.21,MG,1699675267
129,hinton,53.4001,-117.5857,-1.43,82,78,2.44,CA,1699675267
130,istgah-e rah ahan-e garmsar,35.2346,52.3094,15.83,50,70,1.68,IR,1699675267
131,sao joao da barra,-21.6403,-41.0511,22.12,91,2,0.79,BR,1699675105
132,salym,60.0625,71.4789,1.19,96,100,2.43,RU,1699675268
133,khanty-mansiysk,61.0042,69.0019,-0.94,100,100,3.13,RU,1699675268
134,puerto natales,-51.7236,-72.4875,4.35,95,100,2.46,CL,1699675268
135,iskateley,67.6803,53.1512,-8.88,93,97,3.13,RU,1699675268
136,mornington,-38.2167,145.0333,20.81,57,98,7.4,AU,1699675268
137,el calafate,-50.3408,-72.2768,8.46,76,99,3.77,AR,1699675268
138,ugoofaaru,5.6667,73.0,27.98,77,73,2.99,MV,1699675203
139,qamdo,31.1667,97.2333,2.39,37,99,2.51,CN,1699675269
140,severo-yeniseyskiy,60.3725,93.0408,-9.62,72,79,1.29,RU,1699675269
141,wacheng,33.7833,114.5167,2.27,97,100,4.11,CN,1699675269
142,jayapura,-2.5333,140.7,34.66,74,100,3.82,ID,1699675269
143,whitehorse,60.7161,-135.0538,-0.55,100,100,1.03,CA,1699675270
144,anadyr,64.75,177.4833,-15.72,85,0,4.0,RU,1699675270
145,betio village,1.358,172.9211,31.02,88,100,1.62,KI,1699675270
146,avarua,-21.2078,-159.775,26.03,83,100,1.54,CK,1699675271
147,bredasdorp,-34.5322,20.0403,16.37,75,100,2.1,ZA,1699675271
148,mormugao,15.4,73.8,27.59,65,75,3.6,IN,1699675271
149,ola,59.5833,151.2833,-12.92,74,41,5.62,RU,1699675271
150,gardner,42.5751,-71.9981,4.71,73,2,0.45,US,1699675260
151,lazarevskoye,43.9061,39.3331,13.41,32,99,3.14,RU,1699675271
152,noumea,-22.2763,166.4572,25.99,70,85,8.34,NC,1699675012
153,mili,6.0815,171.735,27.5,86,100,6.24,MH,1699675272
154,st. john's,47.5649,-52.7093,2.76,92,100,9.26,CA,1699675041
155,mejit,10.2753,170.8646,27.85,82,100,9.17,MH,1699675273
156,port elizabeth,-33.918,25.5701,18.16,86,0,14.4,ZA,1699675273
157,lompoc,34.6391,-120.4579,12.66,89,0,3.09,US,1699675273
158,thohoyandou,-22.9456,30.485,18.35,75,0,0.32,ZA,1699675273
159,copiapo,-27.3667,-70.3333,13.83,61,0,0.47,CL,1699675168
160,bargaal,11.2864,51.0773,27.2,78,97,4.6,SO,1699675274
161,abbeville,50.1,1.8333,9.98,85,21,3.04,FR,1699675274
162,laojunmiao,39.8333,97.7333,-1.15,27,0,4.34,CN,1699675275
163,suva,-18.1416,178.4415,25.71,78,75,6.17,FJ,1699675276
164,stanley,54.868,-1.6985,4.74,88,40,4.12,GB,1699675276
165,kargasok,59.0556,80.8572,-2.24,95,100,4.92,RU,1699675276
166,argostolion,38.1811,20.489,19.16,79,84,10.52,GR,1699675276
167,weno,7.4515,151.8468,29.97,79,100,3.6,FM,1699675277
168,lihue,21.9789,-159.3672,27.58,83,29,5.98,US,1699675277
169,langfang,39.5097,116.6947,4.95,20,7,3.46,CN,1699675178
170,jose pedro varela,-33.45,-54.5333,16.54,97,100,7.83,UY,1699675277
171,hammerfest,70.6634,23.6821,1.25,93,75,5.66,NO,1699675277
172,argo,37.6333,22.7333,16.35,84,82,1.77,GR,1699675277
173,kiunga,-6.1219,141.2906,34.78,43,88,1.0,PG,1699675278
174,urengoy,65.9667,78.3667,-5.76,94,100,2.54,RU,1699675278
175,fale old settlement,-9.3852,-171.2468,29.14,75,25,4.62,TK,1699675278
176,namibe,-15.1961,12.1522,19.34,77,66,0.29,AO,1699675278
177,san jose temascatio,20.6833,-101.2667,17.02,84,100,1.2,MX,1699675279
178,udachny,66.4167,112.4,-5.86,44,98,8.85,RU,1699675279
179,kodiak,57.79,-152.4072,0.8,64,31,8.36,US,1699675279
180,al bayda',32.7627,21.7551,16.02,50,0,4.55,LY,1699675279
181,touros,-5.1989,-35.4608,25.19,78,5,5.62,BR,1699675280
182,demidov,55.2706,31.515,3.96,89,100,4.06,RU,1699675280
183,ibotirama,-12.1853,-43.2206,24.02,46,1,0.5,BR,1699675280
184,itaituba,-4.2761,-55.9836,26.74,69,66,0.75,BR,1699675280
185,aflou,34.1128,2.1023,6.87,77,24,8.12,DZ,1699675281
186,tadine,-21.55,167.8833,23.05,72,87,9.45,NC,1699675281
187,portland,45.5234,-122.6762,11.02,89,100,3.13,US,1699674674
188,chibougamau,49.9168,-74.3659,-7.21,93,100,3.09,CA,1699675281
189,zhangye,38.9342,100.4517,0.99,27,0,1.03,CN,1699675281
190,port macquarie,-31.4333,152.9167,24.94,64,0,7.82,AU,1699675198
191,taroa,8.7058,171.2275,27.23,85,100,9.02,MH,1699675281
192,seme,15.1942,-12.9448,26.74,19,67,3.17,SN,1699675282
193,tromso,69.6496,18.957,-3.99,93,20,1.54,NO,1699675033
194,salinas,36.6777,-121.6555,14.2,70,0,2.06,US,1699675282
195,yuzhno-kurilsk,44.0306,145.8556,5.76,88,65,12.56,RU,1699675282
196,porto velho,-8.7619,-63.9039,26.03,89,0,1.03,BR,1699675121
197,sinabang,2.4803,96.3801,27.78,75,100,0.35,ID,1699675282
198,nantucket,41.2835,-70.0995,8.9,64,20,8.57,US,1699675283
199,el granada,37.5027,-122.4694,16.68,60,0,5.14,US,1699674991
200,roxas,11.5853,122.7511,28.41,72,56,3.35,PH,1699675283
201,ciudad melchor muzquiz,27.8833,-101.5167,14.18,75,100,1.18,MX,1699675283
202,yakeshi,49.2833,120.7333,-14.4,85,99,3.06,CN,1699675271
203,greenland,43.0362,-70.8328,6.17,78,75,2.57,US,1699675253
204,ataq,14.5377,46.8319,19.34,34,6,1.44,YE,1699675283
205,natal,-5.795,-35.2094,26.12,78,20,4.12,BR,1699675099
206,hasaki,35.7333,140.8333,14.22,61,100,10.29,JP,1699675284
207,vieste,41.8825,16.175,15.95,65,57,10.54,IT,1699675284
208,lambarene,-0.7001,10.2406,23.08,99,100,0.64,GA,1699675284
209,yung shue wan,22.2333,114.1167,25.68,86,77,0.45,HK,1699675162
210,troitsko-pechorsk,62.7084,56.1964,-1.28,94,100,3.13,RU,1699675285
211,eureka,40.8021,-124.1637,11.81,87,100,0.45,US,1699675218
212,uliastay,47.7417,96.8444,-9.82,69,2,1.46,MN,1699675285
213,salinopolis,-0.6136,-47.3561,27.37,77,17,6.27,BR,1699675285
214,tura,25.5198,90.2201,25.19,61,0,0.23,IN,1699675286
215,ghadamis,30.1337,9.5007,16.77,58,27,2.36,LY,1699675286
216,bulawayo,-20.15,28.5833,14.92,66,26,2.75,ZW,1699675231
217,pisco,-13.7,-76.2167,18.03,88,0,5.14,PE,1699675286
218,wenling,28.3669,121.36,14.56,87,100,2.98,CN,1699675256
219,makoua,0.0069,15.6333,21.87,99,100,0.78,CG,1699675287
220,ad dilam,23.9915,47.1627,20.23,31,100,1.27,SA,1699675287
221,quebo,11.3333,-14.9333,22.89,73,100,1.06,GW,1699675287
222,west bay,19.3667,-81.4167,29.04,88,20,4.12,KY,1699675241
223,lone grove,34.1754,-97.2628,10.82,58,0,1.54,US,1699675287
224,derazhnya,49.2692,27.4338,8.72,87,99,7.48,UA,1699675288
225,port lincoln,-34.7333,135.8667,16.61,55,92,8.28,AU,1699675288
226,prainha,-1.8,-53.48,26.79,73,5,2.4,BR,1699675288
227,guozhen,34.3659,107.359,4.83,95,100,0.5,CN,1699675288
228,praia da vitoria,38.7333,-27.0667,20.14,83,40,6.11,PT,1699675288
229,camana,-16.6228,-72.7111,19.78,90,75,2.8,PE,1699675289
230,new norfolk,-42.7826,147.0587,16.72,38,29,4.26,AU,1699675289
231,baiyin,36.5583,104.2081,2.04,31,6,4.95,CN,1699675289
232,beledweyne,4.7358,45.2036,24.48,86,100,3.98,SO,1699675289
233,jalalpur pirwala,29.5069,71.2192,22.17,52,0,4.54,PK,1699675289
234,yangiobod,41.1192,70.0941,11.16,21,92,2.09,UZ,1699675290
235,peace river,56.2501,-117.286,2.17,69,20,1.54,CA,1699675155
236,luanda,-8.8368,13.2343,25.0,88,75,2.57,AO,1699675290
237,springbok,-29.6643,17.8865,13.58,67,4,1.94,ZA,1699675290
238,dalhart,36.0595,-102.5133,5.27,71,53,5.13,US,1699675290
239,katsuura,35.1333,140.3,14.28,67,100,7.71,JP,1699675290
240,caluula,11.9661,50.7569,26.88,78,86,4.64,SO,1699675291
241,susuman,62.7833,148.1667,-25.55,98,89,0.71,RU,1699675291
242,staporkow,51.1376,20.5717,6.68,94,100,0.64,PL,1699675291
243,puerto aysen,-45.4,-72.7,6.9,99,100,1.69,CL,1699675291
244,richards bay,-28.783,32.0377,20.47,82,1,8.39,ZA,1699675291
245,robertsport,6.7533,-11.3686,26.3,82,100,1.76,LR,1699675292
246,donggongon,5.907,116.1015,31.96,70,20,2.57,MY,1699675292
247,seaside,36.6111,-121.8516,13.41,71,56,0.89,US,1699675292
248,xiaoweizhai,26.1903,107.5125,13.03,96,100,1.74,CN,1699675292
249,elliot lake,46.3834,-82.6331,-3.27,89,94,1.31,CA,1699675292
250,nakhodka,42.8333,132.8947,-3.34,40,15,5.61,RU,1699675292
251,canutama,-6.5339,-64.3831,28.32,57,51,1.44,BR,1699675293
252,sussex,41.1834,-74.6663,6.49,85,100,1.54,US,1699675293
253,high rock,26.6208,-78.2833,25.59,81,9,5.69,BS,1699675293
254,toma,12.7667,-2.8833,25.4,21,100,2.62,BF,1699675293
255,sisimiut,66.9395,-53.6735,-7.83,78,73,5.89,GL,1699675293
256,curaca,-8.9903,-39.9094,24.52,60,0,9.07,BR,1699675293
257,chita,52.0333,113.55,-6.06,53,49,3.0,RU,1699675293
258,guijuelo,40.5576,-5.6707,12.58,97,100,4.33,ES,1699675294
259,jakobstad,63.6749,22.7026,-1.71,85,100,7.55,FI,1699675294
260,benghazi,32.1167,20.0667,21.61,54,0,4.37,LY,1699675294
261,novaya igirma,57.1334,103.9112,-7.94,59,9,1.58,RU,1699675294
262,lebu,-37.6167,-73.65,10.85,89,100,9.94,CL,1699675059
263,kasongo-lunda,-6.4667,16.8167,21.08,99,100,0.45,CD,1699675295
264,flekkefjord,58.2971,6.6607,4.41,84,59,1.63,NO,1699675295
265,anbyon-up,39.0425,127.5239,6.29,30,35,1.8,KP,1699675295
266,slavyanka,42.8633,131.3847,-0.2,35,4,3.74,RU,1699675295
267,college,64.8569,-147.8028,-9.18,92,100,2.06,US,1699675079
268,san felipe,10.3399,-68.7425,23.13,98,91,0.46,VE,1699675296
269,guangming,45.3333,122.7833,-2.29,31,0,3.69,CN,1699675296
270,balikpapan,-1.2675,116.8289,30.45,63,78,3.13,ID,1699675297
271,badger,64.8,-147.5333,-9.45,92,100,2.06,US,1699675297
272,dryden,49.7833,-92.7503,-2.84,86,100,1.03,CA,1699675298
273,chiniot,31.72,72.9789,20.32,58,0,1.91,PK,1699675040
274,warri,5.5167,5.75,24.37,95,96,0.78,NG,1699675199
275,laguilayan,6.6525,124.5211,31.42,67,42,1.43,PH,1699675298
276,grande prairie,55.1667,-118.8027,3.1,48,100,4.63,CA,1699675076
277,thaba-tseka,-29.522,28.6084,15.92,37,86,2.14,LS,1699675298
278,oskarshamn,57.2645,16.4484,6.12,92,95,3.2,SE,1699675299
279,bac kan,22.1333,105.8333,28.98,65,74,1.69,VN,1699675299
280,kittila,67.6647,24.8936,-9.92,92,0,1.03,FI,1699675299
281,dunedin,-45.8742,170.5036,15.45,64,1,5.36,NZ,1699675299
282,meadow lakes,61.6247,-149.6011,-1.31,94,100,0.0,US,1699675299
283,novyy urgal,51.0736,132.5642,-8.87,67,67,0.33,RU,1699675299
284,cabo san lucas,22.8909,-109.9124,27.09,73,7,0.45,MX,1699675154
285,haiku-pauwela,20.9219,-156.3051,25.02,71,16,4.47,US,1699675300
286,tierra buena,39.1488,-121.6669,14.25,62,0,2.06,US,1699675300
287,mutuali,-14.8706,37.0044,22.37,82,85,0.97,MZ,1699675301
288,zakamensk,50.3741,103.2863,-6.28,57,3,1.51,RU,1699675044
289,yelizovo,53.1873,158.3805,2.08,100,75,1.0,RU,1699675301
290,lata,40.1629,-8.3327,17.26,99,100,2.48,PT,1699675301
291,puerto santa,-8.9906,-78.6456,18.32,89,20,2.7,PE,1699675277
292,carbonear,47.7332,-53.2148,2.57,92,99,9.55,CA,1699675301
293,souillac,-20.5167,57.5167,25.21,83,40,1.03,MU,1699675301
294,barcelos,41.5388,-8.6151,17.18,98,100,4.19,PT,1699675302
295,dudinka,69.4058,86.1778,-5.21,95,100,8.49,RU,1699675302
296,kantang,7.4054,99.5156,30.05,79,40,0.51,TH,1699675302
297,altai,46.3722,96.2583,-8.98,73,13,0.79,MN,1699675302
298,northam,51.0333,-4.2167,10.34,86,67,5.39,GB,1699675302
299,stephenville,32.2207,-98.2023,13.07,86,100,1.54,US,1699675140
300,wanning,18.8003,110.3967,28.6,74,22,3.79,CN,1699675302
301,faya-largeau,17.9257,19.1043,24.25,26,89,5.88,TD,1699675303
302,pasni,25.2631,63.471,26.23,35,1,3.31,PK,1699675303
303,patos,-7.0244,-37.28,24.55,61,0,2.67,BR,1699675253
304,ocean shores,46.9737,-124.1563,11.68,96,100,7.2,US,1699675303
305,amasra,41.7463,32.3863,15.54,66,94,3.78,TR,1699675303
306,riversdale,18.1659,-76.9642,27.92,93,9,0.68,JM,1699675303
307,morant bay,17.8815,-76.4093,28.79,85,7,4.48,JM,1699675304
308,rio grande,-32.035,-52.0986,18.3,92,95,9.02,BR,1699675304
309,conceicao da barra,-18.5933,-39.7322,23.05,90,6,2.13,BR,1699675152
310,poronaysk,49.2167,143.1167,-2.68,71,100,8.3,RU,1699675304
311,gokceada,40.2011,25.909,17.97,85,43,5.76,TR,1699675304
312,hithadhoo,-0.6,73.0833,27.2,83,45,6.53,MV,1699675304
313,san luis de la loma,17.2706,-100.8939,26.34,87,48,1.2,MX,1699675304
314,san cristobal,7.7669,-72.225,21.1,98,92,1.31,VE,1699675305
315,rybinsk,58.0446,38.8426,3.51,94,87,1.34,RU,1699675305
316,qaqortoq,60.7167,-46.0333,-6.54,58,39,4.48,GL,1699675305
317,rosso,16.4986,-15.8153,24.13,27,22,3.79,SN,1699675305
318,alice springs,-23.7,133.8833,34.75,21,40,5.66,AU,1699675225
319,hadibu,12.65,54.0333,27.31,78,100,5.86,YE,1699675305
320,otjimbingwe,-22.35,16.1333,23.37,46,97,0.8,NA,1699675305
321,saudarkrokur,65.7461,-19.6394,-1.12,82,96,2.68,IS,1699675306
322,hirtshals,57.5881,9.9592,6.3,81,99,4.59,DK,1699675306
323,esmeraldas,-19.7625,-44.3139,24.48,53,47,2.2,BR,1699675306
324,forster,-32.1667,152.5167,25.77,68,1,9.88,AU,1699675306
325,klaksvik,62.2266,-6.589,5.51,72,27,6.53,FO,1699675306
326,al bardiyah,31.7561,25.0865,19.2,83,81,3.76,LY,1699675306
327,mont-laurier,46.5501,-75.4993,-1.21,97,17,1.44,CA,1699675307
328,laguna,38.421,-121.4238,14.62,60,0,1.54,US,1699675307
329,igarka,67.4667,86.5833,-5.85,95,100,6.33,RU,1699675307
330,esperanza,19.5847,-70.9849,24.27,88,86,1.79,DO,1699675307
331,floresta,-8.6011,-38.5686,24.4,60,1,5.85,BR,1699675058
332,pandan,14.0453,124.1694,29.53,71,100,3.57,PH,1699675307
333,la libertad,-2.2333,-80.9,22.81,81,100,4.15,EC,1699675307
334,afaahiti,-17.75,-149.2833,27.93,84,100,5.19,PF,1699675308
335,seven pagodas,12.6264,80.1722,30.03,64,33,6.34,IN,1699675292
336,paracuru,-3.41,-39.0306,27.28,75,8,6.89,BR,1699675308
337,nkove,-7.95,30.85,24.44,68,92,0.73,TZ,1699675308
338,srivardhan,18.0333,73.0167,28.83,60,60,1.99,IN,1699675308
339,kochenevo,55.0218,82.202,2.66,97,95,2.81,RU,1699675308
340,nhamunda,-2.1861,-56.7131,27.53,51,4,1.4,BR,1699675309
341,asau,46.4333,26.4,8.51,96,100,1.17,RO,1699675309
342,chipata,-13.6333,32.65,19.44,84,89,3.03,ZM,1699675309
343,arar,30.9753,41.0381,16.01,31,0,0.0,SA,1699675309
344,carnarvon,-24.8667,113.6333,21.59,70,3,8.9,AU,1699675213
345,howard springs,-12.497,131.047,32.95,54,49,3.0,AU,1699675309
346,bazarnyye mataki,54.8833,49.9333,2.79,83,83,8.49,RU,1699675310
347,nemuro,43.3236,145.575,5.01,49,37,11.55,JP,1699675310
348,antonio enes,-16.2325,39.9086,25.35,70,100,4.47,MZ,1699675310
349,thunder bay,48.4001,-89.3168,-0.01,74,100,2.06,CA,1699675242
350,tchintabaraden,15.8969,5.7985,23.94,14,71,4.36,NE,1699675310
351,cabinda,-5.55,12.2,25.08,94,75,3.09,AO,1699675311
352,sitka,57.0531,-135.33,6.94,81,100,4.12,US,1699675311
353,lovington,32.944,-103.3485,5.02,44,99,2.52,US,1699675311
354,machico,32.7,-16.7667,21.35,82,40,3.09,PT,1699675311
355,tralee,52.2704,-9.7026,8.59,80,87,0.78,IE,1699675311
356,armacao de buzios,-22.7469,-41.8817,23.03,93,25,2.33,BR,1699675311
357,mar del plata,-38.0023,-57.5575,16.08,79,100,17.43,AR,1699675311
358,lesnoy,57.6198,63.0784,4.01,93,100,3.75,RU,1699675312
359,shimoda,34.6667,138.95,16.2,67,98,6.61,JP,1699675312
360,fujinomiya,35.2167,138.6167,15.32,86,99,1.72,JP,1699675312
361,malanville,11.8685,3.3899,24.88,21,56,2.16,BJ,1699675312
362,dalbandin,28.8947,64.4101,18.13,18,0,2.14,PK,1699675312
363,bandarbeyla,9.4942,50.8122,27.25,80,100,6.95,SO,1699675312
364,new plymouth,-39.0667,174.0833,16.84,53,3,10.46,NZ,1699675258
365,malabar,-33.9667,151.25,34.61,62,75,9.77,AU,1699675313
366,la'ie,21.6477,-157.9253,27.98,79,28,2.68,US,1699675313
367,kimbe,-5.5502,150.1429,31.9,56,85,2.14,PG,1699675313
368,bengkulu,-3.8004,102.2655,27.21,78,88,3.53,ID,1699675313
369,martapura,-3.4167,114.85,34.05,52,40,1.54,ID,1699675313
370,tudela de duero,41.5845,-4.5809,14.93,70,100,9.78,ES,1699675313
371,veraval,20.9,70.3667,30.79,45,19,4.59,IN,1699675249
372,bogande,12.9714,-0.1436,26.19,13,94,2.71,BF,1699675314
373,luxor,25.6989,32.6421,25.03,50,0,1.54,EG,1699675314
374,buenaventura,3.8801,-77.0312,24.34,97,100,1.25,CO,1699675201
375,tandil,-37.3217,-59.1332,11.29,98,100,6.69,AR,1699675210
376,floriano,-6.7669,-43.0225,29.13,34,95,1.26,BR,1699675239
377,broome,42.2506,-75.833,6.12,75,98,1.79,US,1699675315
378,tolanaro,-25.0319,46.9987,19.04,88,40,2.06,MG,1699675315
379,saldanha,-33.0117,17.9442,14.03,90,100,3.1,ZA,1699675315
380,greymouth,-42.4667,171.2,14.44,73,0,3.78,NZ,1699675244
381,selkirk,50.1436,-96.8845,-0.92,99,60,1.96,CA,1699675236
382,nizhneangarsk,55.7833,109.55,-6.67,58,28,1.79,RU,1699675315
383,hami,42.8,93.45,6.72,20,100,1.19,CN,1699675315
384,bereket,39.2446,55.5154,11.6,55,74,2.34,TM,1699675316
385,nieuw amsterdam,5.8833,-55.0833,27.3,86,35,5.24,SR,1699675316
386,qingyang,37.4958,121.2581,5.93,55,100,3.95,CN,1699675316
387,airuk,7.2772,168.8203,26.44,90,100,7.28,MH,1699675316
388,klimavichy,53.6135,31.9385,4.89,87,100,5.72,BY,1699675316
389,aktau,43.65,51.2,3.32,62,6,4.53,KZ,1699675316
390,howrah,22.5892,88.3103,26.0,69,5,2.06,IN,1699675317
391,msanga,-6.05,36.0333,22.39,64,100,3.56,TZ,1699675317
392,zhob,31.3411,69.4481,14.29,32,0,0.94,PK,1699675317
393,gorom-gorom,14.4439,-0.2361,26.3,12,75,3.76,BF,1699675317
394,tanumah,27.1,44.1333,19.58,33,7,1.72,SA,1699675317
395,gagarin,55.5529,34.9954,2.84,91,100,4.77,RU,1699675317
396,saipan,15.1355,145.701,28.65,78,100,8.81,MP,1699675317
397,afgooye,2.1381,45.1212,25.74,83,100,3.85,SO,1699675318
398,rikaze,29.25,88.8833,5.21,39,0,0.76,CN,1699675169
399,yantzaza,-3.8278,-78.7594,20.65,98,100,0.28,EC,1699675290
400,tekeli,44.83,78.8239,4.35,64,0,3.96,KZ,1699675318
401,bandiagara,14.3501,-3.6104,25.41,23,87,3.41,ML,1699675318
402,melo,-32.3667,-54.1833,17.15,98,94,6.59,UY,1699675111
403,quellon,-43.1167,-73.6167,8.87,92,100,10.68,CL,1699675318
404,mariani,26.6667,94.3333,24.07,69,0,1.88,IN,1699675318
405,nuku'alofa,-21.1333,-175.2,23.19,68,75,8.75,TO,1699675319
406,mossel bay,-34.1831,22.146,17.96,83,88,4.07,ZA,1699675319
407,georgetown,5.4112,100.3354,29.97,79,20,3.6,MY,1699675310
408,chos malal,-37.3781,-70.2709,12.01,51,14,6.71,AR,1699675319
409,newman,37.3138,-121.0208,12.38,38,100,2.07,US,1699675207
410,minusinsk,53.7103,91.6875,-13.19,84,14,0.7,RU,1699675319
411,moncion,19.4108,-71.1526,21.87,84,87,3.03,DO,1699675320
412,puerto baquerizo moreno,-0.9,-89.6,24.33,81,28,6.16,EC,1699675215
413,kailua-kona,19.6406,-155.9956,26.95,81,100,0.45,US,1699675186
414,ak-dovurak,51.1833,90.6,-14.38,96,100,0.45,RU,1699675321
415,derbent,42.0678,48.2899,11.22,59,6,3.12,RU,1699675321
416,nishinoomote,30.7333,131.0,21.31,83,75,3.09,JP,1699675321
417,grez-doiceau,50.739,4.6983,6.01,95,20,5.14,BE,1699675322
418,bathsheba,13.2167,-59.5167,27.34,89,40,8.23,BB,1699675322
419,buka,40.8108,69.1986,12.03,33,100,1.09,UZ,1699675222
420,altes lager,48.4167,9.55,4.11,97,100,8.39,DE,1699675323
421,kabinda,-6.1333,24.4833,18.66,96,86,0.63,CD,1699675323
422,dano,11.15,-3.0667,25.1,68,45,2.84,BF,1699675323
423,najran,17.4924,44.1277,14.36,37,82,1.66,SA,1699675323
424,bardai,11.65,7.2333,21.18,24,99,3.1,NG,1699675323
425,williams lake,52.1415,-122.1445,6.7,58,75,12.35,CA,1699675236
426,lensk,60.7253,114.9278,-6.34,75,96,6.16,RU,1699675324
427,oban,56.4127,-5.4706,5.82,86,31,2.76,GB,1699675324
428,eyl,7.9803,49.8164,26.76,78,94,4.56,SO,1699675324
429,capo d'orlando,38.1435,14.7305,18.56,79,99,9.9,IT,1699675324
430,aitape,-3.1374,142.3475,28.87,82,98,3.23,PG,1699675325
431,nacala,-14.5428,40.6728,25.67,81,76,4.19,MZ,1699675325
432,hirara,24.8,125.2833,25.92,88,75,8.23,JP,1699675325
433,dongola,19.1667,30.4833,26.15,47,3,3.34,SD,1699675325
434,sanawad,22.1833,76.0667,28.26,39,25,1.62,IN,1699675325
435,ulanhot,46.0833,122.0833,-2.78,29,9,4.03,CN,1699675326
436,gornyye klyuchi,45.25,133.5,-6.13,73,70,3.25,RU,1699675326
437,karratha,-20.7377,116.8463,32.55,31,0,8.51,AU,1699675326
438,mount isa,-20.7333,139.5,35.87,26,40,4.63,AU,1699675326
439,priozersk,61.0393,30.1291,6.67,88,100,2.97,RU,1699675327
440,gaillimh,53.2719,-9.0489,6.61,81,51,0.36,IE,1699675327
441,broken hill,-31.95,141.4333,36.73,16,39,6.12,AU,1699675327
442,mount pearl,47.5166,-52.7813,1.85,92,100,9.26,CA,1699675290
443,port augusta,-32.5,137.7667,26.54,34,9,9.75,AU,1699675327
444,weston,26.1004,-80.3998,28.01,91,75,2.06,US,1699674786
445,kapit,2.0167,112.9333,26.14,87,100,0.4,MY,1699675328
446,vorkuta,67.5,64.0,-14.76,99,95,2.65,RU,1699675169
447,junction city,39.0286,-96.8314,7.14,57,1,4.47,US,1699675328
448,ancud,-41.8697,-73.8203,9.57,91,100,12.16,CL,1699675329
449,grand-bassam,5.2118,-3.7388,26.98,89,76,3.83,CI,1699675329
450,guiuan,11.0333,125.7247,28.49,72,16,1.61,PH,1699675329
451,lankaran,38.7543,48.8506,13.04,100,100,2.06,AZ,1699675329
452,khorixas,-20.3667,14.9667,21.26,31,67,0.75,NA,1699675329
453,deming,32.2687,-107.7586,8.64,73,11,3.81,US,1699675330
454,porto novo,6.4965,2.6036,26.39,87,96,2.69,BJ,1699675330
455,lospalos,-8.5186,127.0025,31.05,40,22,4.16,TL,1699675330
456,kelibia,36.8476,11.0939,18.14,77,20,2.06,TN,1699675330
457,boyolangu,-8.1181,111.8935,30.49,58,50,3.69,ID,1699675331
458,isla mujeres,21.2311,-86.731,25.09,84,17,5.7,MX,1699675331
459,bainbridge,47.6262,-122.5212,11.27,80,100,5.14,US,1699675144
460,leer,53.2316,7.461,7.3,98,100,3.56,DE,1699675331
461,lodja,-3.4833,23.4333,19.37,99,95,0.59,CD,1699675332
462,gvardeysk,54.6477,21.0651,9.08,92,100,2.68,RU,1699675332
463,yokadouma,3.5167,15.05,20.32,99,97,0.32,CM,1699675332
464,bikenibeu village,1.3673,173.1241,30.98,74,75,4.63,KI,1699675332
465,long xuyen,10.3833,105.4167,29.97,66,100,4.12,VN,1699675333
466,antsiranana,-12.2787,49.2917,25.42,88,40,0.0,MG,1699675333
467,altamira,-3.2033,-52.2064,24.74,81,65,1.9,BR,1699675296
468,zouerate,22.7187,-12.4521,22.62,25,0,3.81,MR,1699675334
469,alghero,40.5589,8.3181,17.05,55,0,3.6,IT,1699675334
470,callaway,30.153,-85.5699,22.78,86,100,2.67,US,1699675334
471,holualoa,19.6228,-155.9522,24.88,80,100,1.73,US,1699675334
472,nampula,-15.1165,39.2666,22.97,88,75,4.12,MZ,1699675333
473,vadso,70.0744,29.7487,1.09,64,20,7.72,NO,1699675335
474,angaur state,6.906,134.13,28.1,79,100,3.72,PW,1699675335
475,fredrikstad,59.2181,10.9298,3.55,93,100,2.57,NO,1699675336
476,burang,30.25,81.1667,-1.63,55,53,1.87,CN,1699675336
477,tazacorte,28.629,-17.9293,21.19,53,0,4.12,ES,1699675336
478,fort bragg,35.139,-79.006,13.08,66,100,2.06,US,1699675336
479,ulsteinvik,62.3432,5.8487,4.06,81,25,2.68,NO,1699675336
480,al kharijah,25.4514,30.5464,24.79,39,98,3.89,EG,1699675336
481,tual,-5.6667,132.75,28.08,76,72,4.63,ID,1699675337
482,kudahuvadhoo,2.6708,72.8944,27.5,80,99,4.12,MV,1699675337
483,san borja,-14.8167,-66.85,26.45,66,21,1.28,BO,1699675337
484,maracana,-0.7667,-47.45,26.32,79,28,2.56,BR,1699675337
485,noosa heads,-26.3833,153.15,25.06,65,22,5.37,AU,1699675337
486,vodnyy,63.5046,53.4095,-0.88,81,100,0.76,RU,1699675338
487,tomatlan,19.9333,-105.25,23.66,94,100,1.3,MX,1699675338
488,qui nhon,13.7667,109.2333,28.15,78,53,3.3,VN,1699675281
489,fukuecho,32.6881,128.8419,17.2,59,75,4.63,JP,1699675338
490,dogubayazit,39.5469,44.0842,5.92,76,17,1.08,TR,1699675338
491,opuwo,-18.0607,13.84,20.65,41,80,1.1,NA,1699675339
492,ma'rib,15.4591,45.3253,19.91,34,65,1.46,YE,1699675339
493,changsha,28.2,112.9667,10.09,93,100,6.5,CN,1699675339
494,bull savanna,17.8868,-77.5902,25.32,83,12,3.86,JM,1699675339
495,kouvola,60.8667,26.7,6.44,99,100,2.06,FI,1699675339
496,bodo,67.28,14.405,-2.81,68,0,5.66,NO,1699675340
497,nyurba,63.2842,118.3319,-10.16,88,81,4.41,RU,1699675340
498,kalix,65.853,23.1565,-8.1,80,6,4.48,SE,1699675340
499,westport,41.1415,-73.3579,8.19,78,4,1.34,US,1699675208
500,saint-vith,50.2815,6.1272,5.37,94,98,6.42,BE,1699675341
501,ghat,24.9647,10.1728,19.24,17,0,0.45,LY,1699675341
502,kununurra,-15.7667,128.7333,34.99,46,12,4.63,AU,1699675341
503,mosjoen,65.836,13.1908,-1.71,69,8,4.12,NO,1699675341
504,pimentel,-6.8367,-79.9342,20.16,83,0,6.17,PE,1699675342
505,mariinsk,56.2139,87.7472,1.15,96,100,1.48,RU,1699675342
506,amarante do maranhao,-5.5667,-46.7422,25.6,62,8,2.53,BR,1699675292
507,atar,20.5169,-13.0499,22.73,26,0,3.04,MR,1699675342
508,pleiku,13.9833,108.0,27.88,58,70,3.01,VN,1699675342
509,gignac,43.652,3.5509,10.53,77,99,2.59,FR,1699675342
510,sergeyevka,53.88,67.4158,3.52,89,100,3.67,KZ,1699675343
511,tubarjal,30.4999,38.216,20.91,40,87,3.06,SA,1699675343
512,labytnangi,66.6572,66.4183,-11.4,93,100,2.46,RU,1699675343
513,tonghae,37.5439,129.1069,9.59,52,100,2.09,KR,1699675344
514,dhidhdhoo,6.8833,73.1,28.3,77,37,3.87,MV,1699675345
515,arawa,-6.2132,155.5367,29.48,69,99,0.98,PG,1699675345
516,akureyri,65.6835,-18.0878,-6.04,93,0,0.0,IS,1699675345
517,san luis,-33.295,-66.3356,16.29,84,81,9.66,AR,1699675346
518,gadzhiyevo,69.2551,33.3362,-0.83,84,83,7.99,RU,1699675346
519,ar raqqah,35.95,39.0167,17.87,46,100,1.01,SY,1699675346
520,hilo,19.7297,-155.09,22.92,93,100,0.45,US,1699675346
521,cole harbour,44.6724,-63.4751,4.71,88,26,3.6,CA,1699675346
522,higuera de zaragoza,25.95,-109.2833,23.49,57,0,4.59,MX,1699675346
523,mahalapye,-23.1041,26.8142,18.99,68,7,5.7,BW,1699675347
524,hrubieszow,50.805,23.8925,6.33,67,100,1.78,PL,1699675347
525,baikonur,45.6167,63.3167,9.41,49,87,3.83,KZ,1699675347
526,humaita,-7.5061,-63.0208,29.25,51,50,0.77,BR,1699675347
527,tanhacu,-14.0214,-41.2481,21.17,72,1,2.68,BR,1699675347
528,malmberget,67.1753,20.6549,-11.69,92,5,3.09,SE,1699675347
529,luau,-10.7073,22.2247,17.86,94,100,1.13,AO,1699675348
530,benguela,-12.5763,13.4055,25.16,71,99,1.81,AO,1699675348
531,labrador city,52.9463,-66.9114,-10.05,92,75,1.03,CA,1699675214
532,kibale,0.8,31.0667,15.42,99,50,0.3,UG,1699675349
533,joshimath,30.5667,79.5667,14.36,41,41,1.53,IN,1699675349
534,kibuye,-2.0597,29.3482,18.64,80,100,1.64,RW,1699675349
535,wailea,19.8858,-155.123,24.32,94,97,5.39,US,1699675349
536,cabedelo,-6.9811,-34.8339,26.37,76,9,6.11,BR,1699675143
537,morondava,-20.2833,44.2833,24.41,64,0,2.19,MG,1699675350
538,ciudad guayana,8.3533,-62.6528,26.4,88,78,2.02,VE,1699675350
539,sinop,41.7711,34.8709,11.3,75,81,5.66,TR,1699675350
540,singaraja,-8.112,115.0882,31.21,62,54,2.28,ID,1699675350
541,at taj,24.2049,23.2857,19.11,43,100,4.2,LY,1699675350
542,fort st. john,56.2499,-120.8529,0.94,69,75,4.12,CA,1699675245
543,akranes,64.3218,-22.0749,2.31,76,87,4.32,IS,1699675351
544,inhambane,-23.865,35.3833,17.99,94,20,2.06,MZ,1699675351
545,ponta delgada,37.7333,-25.6667,22.33,94,75,9.26,PT,1699675213
546,zaozersk,69.4005,32.4476,-0.91,80,93,4.61,RU,1699675351
547,pyhajarvi,67.0701,27.2176,-14.6,97,9,1.59,FI,1699675351
548,lagoa,39.05,-27.9833,19.06,87,1,11.21,PT,1699675351
549,taltal,-25.4,-70.4833,16.23,85,21,2.84,CL,1699675221
550,timimoun,29.2639,0.231,15.21,47,0,3.09,DZ,1699675352
551,businga,3.3333,20.8833,22.09,99,100,0.69,CD,1699675158
552,tabatinga,-4.2525,-69.9381,24.05,100,20,0.0,BR,1699675352
553,weleri,-6.9713,110.0666,31.94,60,5,3.05,ID,1699675352
554,darnah,32.767,22.6367,20.37,62,0,3.96,LY,1699675352
555,tegueste,28.5167,-16.3167,18.93,90,40,2.06,ES,1699675352
556,prince rupert,54.3161,-130.3201,7.83,91,100,13.89,CA,1699675353
557,rudnyy,52.9594,63.1206,5.13,82,100,5.04,KZ,1699675353
558,mahdia,35.5047,11.0622,18.97,62,28,5.88,TN,1699675353
559,lhokseumawe,5.1801,97.1507,27.71,76,100,1.13,ID,1699675353
560,praia,14.9215,-23.5087,23.3,78,20,4.12,CV,1699675353
561,bena,11.2844,5.9347,22.13,26,100,1.81,NG,1699675353
562,newport,51.5877,-2.9984,8.79,89,31,1.52,GB,1699675220
563,thief river falls,48.1191,-96.1812,-1.47,93,100,0.0,US,1699675149
564,viedma,-40.8135,-62.9967,16.32,77,100,9.75,AR,1699675354
565,dalton,34.7698,-84.9702,13.12,81,100,4.63,US,1699675175
566,ulladulla,-35.35,150.4667,37.09,51,46,8.32,AU,1699675354
567,remire-montjoly,4.9167,-52.2667,27.13,84,11,6.1,GF,1699675355
568,turpan,42.9333,89.1667,11.39,26,100,0.99,CN,1699675355
569,xichang,27.8964,102.2634,17.87,58,1,1.19,CN,1699675355
570,isla del bosque,22.7333,-105.85,25.5,81,57,2.6,MX,1699675355
571,udgir,18.3833,77.1167,25.19,59,65,2.53,IN,1699675356
572,cannonvale,-20.2833,148.7,26.66,65,39,6.94,AU,1699675356
573,zavodoukovsk,56.5042,66.5515,1.03,92,100,3.76,RU,1699675356
574,kavieng,-2.5744,150.7967,29.0,72,100,7.16,PG,1699675356
575,wynyard,-41.0,145.7167,18.98,33,6,5.63,AU,1699675357
576,maieru,47.4,24.75,4.38,83,100,0.61,RO,1699675357
577,trinity beach,-16.7888,145.6968,35.01,48,29,7.72,AU,1699675357
578,amursk,50.2261,136.8994,-5.57,85,100,3.67,RU,1699675357
579,island harbour,50.724,-1.2758,7.21,91,12,0.89,GB,1699675358
580,anar darah,32.7587,61.654,18.35,15,0,1.76,AF,1699675358
581,vorgashor,67.5833,63.95,-14.5,99,97,2.87,RU,1699675358
582,ar rahad,12.7167,30.65,26.55,56,28,0.19,SD,1699675358
583,moya,28.0906,-15.5883,17.93,84,59,6.0,ES,1699675358
584,tornio,65.8481,24.1466,-6.99,83,7,3.6,FI,1699675358
585,shirwal,18.1333,73.9833,25.13,57,94,2.33,IN,1699675359
586,porbandar,21.6422,69.6093,29.99,42,0,5.14,IN,1699675359
587,san antonio de pale,-1.4014,5.6325,26.09,83,100,5.43,GQ,1699675270
588,san agustin de valle fertil,-30.6335,-67.4682,21.94,33,0,0.78,AR,1699675359
589,ilhabela,-23.7781,-45.3581,22.21,93,49,1.68,BR,1699675291
590,preobrazheniye,42.9019,133.9064,-1.2,38,5,3.64,RU,1699675359
591,jackson,42.4165,-122.8345,9.92,85,92,0.61,US,1699675360
592,arua,3.0201,30.9111,18.13,88,52,1.27,UG,1699675360
593,mitu,1.1983,-70.1733,22.77,99,100,0.31,CO,1699675360
594,padang,-0.9492,100.3543,29.03,87,87,2.06,ID,1699675360
595,pervomayskoye,43.919,46.7102,5.96,62,0,3.22,RU,1699675361
596,filiatra,37.15,21.5833,17.61,81,99,6.23,GR,1699675361
597,harper,4.375,-7.7169,24.6,90,48,3.0,LR,1699675361
598,mawlamyinegyunn,16.3833,95.2667,29.29,74,100,2.73,MM,1699675361
599,sola,-13.8833,167.55,27.37,83,75,5.14,VU,1699675361
600,luza,60.6308,47.2512,-2.14,87,64,1.88,RU,1699675361
601,crete,35.1558,24.895,14.47,85,11,2.58,GR,1699675362
602,papao,-17.75,-149.55,28.82,78,97,3.16,PF,1699675362
603,malango,-2.9627,119.9001,26.1,66,96,0.17,ID,1699675362
604,nanpiao,41.0982,120.7479,-0.25,42,0,4.56,CN,1699675362
605,woolgoolga,-30.1106,153.2007,28.36,70,17,7.22,AU,1699675362
606,formosa do rio preto,-11.0483,-45.1931,26.19,39,71,0.99,BR,1699675362
607,wucheng,29.6008,118.175,12.94,85,100,2.27,CN,1699675363
608,solapur,17.6833,75.9167,25.55,65,79,2.39,IN,1699675363
609,kewanee,41.2456,-89.9248,1.38,72,0,1.22,US,1699675363
610,thinadhoo,0.5333,72.9333,27.25,82,58,5.69,MV,1699675363
