City_ID,City,Lat,Lng,Max Temp,Humidity,Cloudiness,Wind Speed,Country,Date
0,papatowai,-46.5619,169.4708,11.55,72,100,3.21,NZ,1699312206
1,west island,-12.1568,96.8225,24.99,78,40,5.14,CC,1699312206
2,amga,60.8953,131.9608,-29.27,100,86,0.93,RU,1699312206
3,tura,25.5198,90.2201,17.11,84,0,1.54,IN,1699312207
4,port alfred,-33.5906,26.891,17.32,98,100,1.34,ZA,1699312207
5,saint-pierre,-21.3393,55.4781,21.98,81,51,4.24,RE,1699312207
6,remire-montjoly,4.9167,-52.2667,29.02,84,0,2.57,GF,1699312167
7,rongelap,11.1635,166.8941,28.08,72,83,9.89,MH,1699312152
8,port-aux-francais,-49.35,70.2167,1.93,71,71,15.88,TF,1699312208
9,rocky mountain house,52.3668,-114.9188,2.51,86,71,2.09,CA,1699312209
10,hamilton,39.1834,-84.5333,21.35,55,0,5.66,US,1699312066
11,saynshand,44.8824,110.1163,-11.96,83,24,3.3,MN,1699312209
12,anadyr,64.75,177.4833,-15.0,77,0,6.71,RU,1699312160
13,whiteville,34.3388,-78.7031,18.08,65,0,0.0,US,1699312210
14,blackmans bay,-43.0167,147.3167,14.07,84,97,0.45,AU,1699312166
15,ust-tsilma,65.441,52.1498,0.34,96,100,4.02,RU,1699312210
16,port blair,11.6667,92.75,27.36,80,96,1.55,IN,1699312210
17,grytviken,-54.2811,-36.5092,2.13,91,62,1.56,GS,1699312158
18,bilibino,68.0546,166.4372,-22.92,99,53,1.6,RU,1699312166
19,sanming,26.2486,117.6186,16.27,79,96,1.0,CN,1699312211
20,saminaka,10.414,8.6828,23.3,34,93,1.45,NG,1699312211
21,bethel,41.3712,-73.414,10.92,77,0,1.54,US,1699312083
22,waitangi,-43.9535,-176.5597,13.23,92,100,3.13,NZ,1699312148
23,petropavlovsk-kamchatsky,53.0452,158.6483,-4.75,72,0,5.0,RU,1699312169
24,ivdel',60.6911,60.4206,0.01,87,58,1.34,RU,1699312212
25,hawaiian paradise park,19.5933,-154.9731,28.73,75,0,4.63,US,1699312184
26,naze,28.3667,129.4833,20.66,67,78,8.06,JP,1699312213
27,stanley,54.868,-1.6985,7.01,92,0,3.6,GB,1699311924
28,adamstown,-25.066,-130.1015,22.99,82,100,7.96,PN,1699312154
29,santa cruz,-17.8,-63.1667,32.6,32,7,2.29,BO,1699312172
30,monrovia,6.3005,-10.7969,24.87,87,55,3.01,LR,1699312208
31,isafjordur,66.0755,-23.124,1.13,88,100,4.57,IS,1699312213
32,dudinka,69.4058,86.1778,-19.1,98,82,3.38,RU,1699312214
33,am timan,11.0297,20.2827,28.27,41,48,2.06,TD,1699312214
34,iqaluit,63.7506,-68.5145,-9.15,85,100,3.6,CA,1699312214
35,college,64.8569,-147.8028,-6.97,90,100,2.57,US,1699312167
36,ushuaia,-54.8,-68.3,11.81,40,75,5.66,AR,1699312169
37,miri,4.4148,114.0089,25.09,89,100,2.06,MY,1699312215
38,edinburgh of the seven seas,-37.0676,-12.3116,15.57,98,100,11.7,SH,1699312162
39,port elizabeth,-33.918,25.5701,17.4,89,92,3.58,ZA,1699312156
40,invercargill,-46.4,168.35,12.23,81,94,3.13,NZ,1699312160
41,antsiranana,-12.2787,49.2917,24.83,81,12,6.68,MG,1699312048
42,kitsman,48.4386,25.761,8.64,65,1,1.65,UA,1699312215
43,haiku-pauwela,20.9219,-156.3051,31.01,40,20,11.32,US,1699312216
44,kapuskasing,49.4169,-82.4331,-2.95,93,100,5.14,CA,1699312216
45,tiksi,71.6872,128.8694,-23.13,97,94,3.36,RU,1699312150
46,ilulissat,69.2167,-51.1,-3.99,42,40,7.72,GL,1699312217
47,pedra azul,-16.0053,-41.2972,20.46,90,100,1.76,BR,1699312217
48,gavrilov posad,56.5597,40.1175,10.5,85,80,5.24,RU,1699312217
49,luderitz,-26.6481,15.1594,14.7,84,0,3.92,NA,1699312218
50,auki,-8.7676,160.7034,28.73,73,100,0.9,SB,1699312218
51,touros,-5.1989,-35.4608,27.31,67,87,5.74,BR,1699312173
52,flying fish cove,-10.4217,105.6791,25.82,83,75,3.09,CX,1699312218
53,port mathurin,-19.6833,63.4167,24.48,79,5,4.71,MU,1699312151
54,bunia,1.5667,30.25,16.59,92,74,0.88,CD,1699312219
55,liminka,64.8099,25.4155,0.66,100,0,2.06,FI,1699312219
56,usinsk,65.9939,57.5281,-0.52,97,100,8.49,RU,1699312219
57,albany,42.6001,-73.9662,8.48,59,100,2.24,US,1699311808
58,ribeira grande,38.5167,-28.7,18.12,66,79,9.52,PT,1699312169
59,nadi,-17.8,177.4167,29.0,61,75,4.63,FJ,1699312220
60,powell river,49.8496,-124.5361,10.8,100,100,1.03,CA,1699311932
61,kartaly,53.0522,60.6467,1.68,69,100,3.58,RU,1699312220
62,buka,40.8108,69.1986,14.47,27,65,0.88,UZ,1699312221
63,atafu village,-8.5421,-172.5159,29.02,73,49,4.37,TK,1699312186
64,kosh-agach,50.0,88.6667,-14.83,87,100,0.45,RU,1699312221
65,puerto natales,-51.7236,-72.4875,8.54,76,75,2.15,CL,1699312149
66,jardim,-21.4803,-56.1381,30.45,29,3,4.07,BR,1699312065
67,cuichapa,18.7667,-96.8667,21.43,95,97,1.42,MX,1699312222
68,karaton,-6.3424,106.1045,24.14,89,77,0.36,ID,1699312222
69,hotan,37.0997,79.9269,9.08,21,99,1.86,CN,1699312222
70,udachny,66.4167,112.4,-17.53,84,99,1.3,RU,1699312171
71,colonia,50.9333,6.95,10.54,81,0,4.63,DE,1699312188
72,santa marta,11.2408,-74.199,29.38,78,40,1.34,CO,1699312223
73,lihue,21.9789,-159.3672,27.58,86,100,8.75,US,1699312223
74,georgetown,5.4112,100.3354,26.68,92,20,2.06,MY,1699311920
75,impfondo,1.6381,18.0667,23.48,86,87,0.84,CG,1699312223
76,olonkinbyen,70.9221,-8.7187,-0.44,68,100,5.95,SJ,1699312174
77,brisas barra de suchiate,14.55,-92.2167,28.1,78,100,1.47,MX,1699312224
78,sola,-13.8833,167.55,26.49,80,92,9.83,VU,1699312224
79,cooma,-36.2333,149.1333,21.99,36,14,0.78,AU,1699312061
80,murzuq,25.9155,13.9184,22.01,21,0,2.81,LY,1699312225
81,thompson,55.7435,-97.8558,-6.91,58,40,2.06,CA,1699311944
82,mitsamiouli,-11.3847,43.2844,26.33,80,4,5.37,KM,1699312225
83,ghat,24.9647,10.1728,22.94,16,0,2.22,LY,1699312226
84,sur,22.5667,59.5289,26.84,63,82,3.97,OM,1699312226
85,margaret river,-33.95,115.0667,16.42,68,72,4.75,AU,1699312177
86,puerto ayora,-0.7393,-90.3518,25.31,88,68,4.02,EC,1699312151
87,kislyakovskaya,46.4417,39.675,11.14,90,0,3.18,RU,1699312226
88,constantia,44.1833,28.65,11.5,69,1,4.46,RO,1699312227
89,plettenberg bay,-34.0527,23.3716,15.17,79,67,3.46,ZA,1699312227
90,bikin,46.8161,134.26,-2.99,96,100,2.99,RU,1699312149
91,cill airne,52.05,-9.5167,7.49,91,43,3.06,IE,1699312227
92,borujerd,33.8973,48.7516,10.77,49,19,1.62,IR,1699312228
93,newman,37.3138,-121.0208,22.91,61,99,3.93,US,1699312184
94,as sulayyil,20.4607,45.5779,26.14,41,70,2.97,SA,1699312228
95,eyl,7.9803,49.8164,26.08,83,100,4.99,SO,1699312228
96,nova sintra,14.8667,-24.7167,23.85,75,100,7.78,CV,1699312229
97,ebon,4.582,168.6964,26.38,89,100,8.5,MH,1699312229
98,castanos,26.7833,-101.4167,25.5,39,100,1.34,MX,1699312230
99,orcopampa,-15.2661,-72.3417,10.09,76,100,3.16,PE,1699312230
100,fort bragg,35.139,-79.006,18.41,53,0,0.0,US,1699312180
101,kruisfontein,-34.0033,24.7314,15.77,82,100,4.52,ZA,1699312154
102,yellowknife,62.456,-114.3525,-5.71,93,100,4.63,CA,1699312158
103,qaqortoq,60.7167,-46.0333,2.55,41,100,12.26,GL,1699312176
104,tocopilla,-22.092,-70.1979,19.68,67,70,4.59,CL,1699311713
105,afaahiti,-17.75,-149.2833,24.48,81,77,2.55,PF,1699312173
106,alesund,62.4723,6.1549,8.75,77,100,3.09,NO,1699312232
107,ilhabela,-23.7781,-45.3581,20.24,75,40,2.46,BR,1699312232
108,lebu,-37.6167,-73.65,12.15,97,100,6.79,CL,1699312159
109,machachi,-0.5,-78.5667,15.42,96,99,0.68,EC,1699312232
110,al hawatah,13.4167,34.6333,28.81,52,68,1.54,SD,1699312232
111,kalianget,-7.05,113.9333,27.77,78,98,4.23,ID,1699312232
112,keflavik,64.0049,-22.5624,3.24,93,75,6.17,IS,1699312233
113,whitehorse,60.7161,-135.0538,-1.06,86,100,4.12,CA,1699312168
114,thinadhoo,0.5333,72.9333,26.84,81,100,2.73,MV,1699312233
115,keningau,5.3378,116.1602,23.01,97,74,0.63,MY,1699312233
116,labrador city,52.9463,-66.9114,-6.05,63,75,3.09,CA,1699312234
117,santa cruz de tenerife,28.4682,-16.2546,21.51,83,40,5.14,ES,1699312126
118,ar rahad,12.7167,30.65,28.63,45,82,0.9,SD,1699312234
119,pisco,-13.7,-76.2167,20.03,83,0,8.23,PE,1699312188
120,al qusayr,34.5091,36.5798,17.14,63,1,0.54,SY,1699312234
121,maryborough,-25.5333,152.7,24.92,51,33,4.33,AU,1699312235
122,sechura,-5.5569,-80.8222,23.01,65,41,8.31,PE,1699312235
123,forbes,-33.3833,148.0167,26.62,36,100,4.23,AU,1699312235
124,farkhar,36.5729,69.8578,12.99,30,99,1.41,AF,1699312235
125,villa gesell,-37.2639,-56.973,16.7,74,51,7.24,AR,1699312236
126,lockwood,45.8191,-108.4149,14.12,58,40,2.57,US,1699312236
127,khalkhal,37.6189,48.5258,9.28,47,0,1.9,IR,1699312236
128,sambava,-14.2667,50.1667,23.3,87,17,4.0,MG,1699312237
129,huntsville,34.7304,-86.5861,22.14,48,0,3.13,US,1699312086
130,hemsby,52.6971,1.6918,7.77,87,49,6.55,GB,1699312237
131,argo,37.6333,22.7333,19.32,63,0,2.22,GR,1699312237
132,phalodi,27.1333,72.3667,25.61,27,0,2.43,IN,1699312238
133,chonchi,-42.6128,-73.8092,12.56,98,100,3.01,CL,1699312157
134,burang,30.25,81.1667,-2.41,72,59,1.22,CN,1699312238
135,tazacorte,28.629,-17.9293,20.08,78,100,4.92,ES,1699312190
136,cockburn town,21.4612,-71.1419,27.63,73,100,3.2,TC,1699312154
137,hermanus,-34.4187,19.2345,15.38,83,20,4.9,ZA,1699312182
138,kidal,18.4411,1.4078,26.59,10,1,2.62,ML,1699312188
139,marshall,34.3834,-86.3333,22.17,47,0,2.06,US,1699312239
140,vakarai,55.6035,23.8213,9.29,91,84,6.66,LT,1699312239
141,sisimiut,66.9395,-53.6735,-5.51,65,98,6.2,GL,1699312175
142,horqueta,-23.3428,-57.0597,29.91,36,0,4.76,PY,1699312240
143,kristiansund,63.1115,7.732,5.36,81,100,1.54,NO,1699312240
144,bogale,16.2833,95.4,24.14,91,93,2.25,MM,1699312240
145,muli,2.9167,73.5667,26.87,78,91,0.83,MV,1699312240
146,san luis de la loma,17.2706,-100.8939,28.45,78,99,1.45,MX,1699312183
147,vorgashor,67.5833,63.95,-2.09,98,100,5.58,RU,1699312167
148,peruibe,-24.32,-46.9983,18.4,81,9,2.09,BR,1699312240
149,lompoc,34.6391,-120.4579,24.88,77,20,7.6,US,1699312165
150,new norfolk,-42.7826,147.0587,14.72,56,96,0.83,AU,1699312241
151,hithadhoo,-0.6,73.0833,26.87,80,94,2.99,MV,1699312164
152,crucecita,-28.95,-58.9833,22.18,75,0,3.82,AR,1699312241
153,uturoa,-16.7333,-151.4333,25.54,82,26,6.22,PF,1699312241
154,zigong,29.3416,104.7769,18.33,76,100,1.52,CN,1699312060
155,geraldton,-28.7667,114.6,20.23,73,75,6.69,AU,1699312170
156,takoradi,4.8845,-1.7554,26.38,89,85,3.91,GH,1699312046
157,matoury,4.8483,-52.3317,28.98,84,0,2.57,GF,1699312242
158,mazatlan,23.2167,-106.4167,29.98,80,100,0.89,MX,1699312039
159,wailua homesteads,22.0669,-159.378,27.24,89,100,8.75,US,1699312182
160,waddan,29.1614,16.139,23.31,21,0,3.33,LY,1699312242
161,kingston,17.997,-76.7936,30.53,80,40,3.6,JM,1699311914
162,turbat,26.0023,63.044,23.97,62,0,0.67,PK,1699312243
163,karratha,-20.7377,116.8463,33.17,26,100,10.14,AU,1699312243
164,novaya igirma,57.1334,103.9112,-13.67,99,84,0.78,RU,1699312243
165,east london,-33.0153,27.9116,19.56,94,100,6.35,ZA,1699312049
166,yuzhno-kurilsk,44.0306,145.8556,14.93,98,100,8.46,RU,1699312243
167,aswan,24.0934,32.907,28.52,34,29,1.9,EG,1699312243
168,safotu,-13.4513,-172.4018,27.39,87,92,12.27,WS,1699312244
169,afua,-0.1567,-50.3867,27.94,75,58,3.84,BR,1699312244
170,jamestown,42.097,-79.2353,13.17,64,100,8.23,US,1699312234
171,whitby,54.4877,-0.615,7.86,90,56,1.34,GB,1699312244
172,tokonou,9.65,-9.7833,22.22,89,67,0.99,GN,1699312244
173,kapa'a,22.0752,-159.319,27.99,89,100,8.75,US,1699312166
174,tofol,5.3248,163.0078,27.88,89,100,2.06,FM,1699312245
175,iskateley,67.6803,53.1512,1.68,100,100,8.94,RU,1699312157
176,oranjemund,-28.55,16.4333,14.56,92,0,1.35,NA,1699312245
177,tabuk,17.4189,121.4443,23.72,92,70,1.42,PH,1699312245
178,kampene,-3.6,26.6667,20.02,100,100,1.24,CD,1699312245
179,longyearbyen,78.2186,15.6401,-13.09,78,75,3.6,SJ,1699312159
180,san juan de uraba,8.7592,-76.5297,25.58,91,100,1.17,CO,1699312246
181,mahina,-17.5065,-149.489,25.42,94,75,4.63,PF,1699312246
182,kurchatov,51.6601,35.6521,9.23,87,61,6.43,RU,1699312246
183,saipan,15.1355,145.701,29.39,79,75,5.14,MP,1699312155
184,glace bay,46.1969,-59.957,2.3,72,41,5.16,CA,1699312246
185,tan-tan,28.438,-11.1032,19.2,77,6,11.48,MA,1699312247
186,moranbah,-22.0016,148.0466,25.13,54,42,7.33,AU,1699312247
187,chibougamau,49.9168,-74.3659,-5.21,93,100,5.66,CA,1699312247
188,campoverde,-8.4753,-74.8058,29.83,60,99,1.98,PE,1699312247
189,malango,-2.9627,119.9001,21.36,87,86,0.48,ID,1699312247
190,bredasdorp,-34.5322,20.0403,14.67,71,4,3.86,ZA,1699312171
191,taradale,-39.5333,176.85,16.68,71,75,2.12,NZ,1699312248
192,san pedro pochutla,15.7333,-96.4667,30.84,73,78,2.29,MX,1699312200
193,mongagua,-24.0931,-46.6208,22.0,78,10,2.61,BR,1699312119
194,ixtapa-zihuatanejo,17.6333,-101.55,33.05,62,0,0.0,MX,1699312248
195,mount pearl,47.5166,-52.7813,2.4,71,24,1.79,CA,1699312248
196,carutapera,-1.195,-46.02,26.99,75,83,4.24,BR,1699312102
197,kalmunai,7.4167,81.8167,25.86,85,100,1.09,LK,1699312249
198,aras-asan,8.8908,126.3033,26.66,85,80,1.71,PH,1699312249
199,timbiqui,2.7717,-77.6654,24.77,93,100,1.34,CO,1699312249
200,hasaki,35.7333,140.8333,23.22,82,100,16.47,JP,1699312249
201,utrik,11.2278,169.8474,27.9,74,100,9.62,MH,1699312168
202,nuuk,64.1835,-51.7216,0.34,51,75,5.66,GL,1699312249
203,hailar,49.2,119.7,-20.58,97,85,1.74,CN,1699312250
204,kisangani,0.5167,25.2,21.87,98,100,2.16,CD,1699312250
205,effingham,32.3669,-81.3332,17.97,72,14,1.44,US,1699312250
206,mizdah,31.4451,12.9801,20.28,30,0,2.63,LY,1699312250
207,ust-nera,64.5667,143.2,-27.67,99,81,1.57,RU,1699312183
208,san felipe,10.3399,-68.7425,24.41,89,96,0.9,VE,1699312252
209,lensk,60.7253,114.9278,-8.65,98,100,1.01,RU,1699312252
210,avarua,-21.2078,-159.775,25.03,53,20,6.69,CK,1699312189
211,al mijlad,11.0333,27.7333,30.1,44,91,4.03,SD,1699312253
212,novokruchininskiy,51.7833,113.7667,-11.15,90,100,0.99,RU,1699312253
213,hammerfest,70.6634,23.6821,1.25,93,75,5.14,NO,1699312128
214,callao,-12.0667,-77.15,21.51,77,100,5.14,PE,1699312253
215,tlahualilo de zaragoza,26.1167,-103.45,24.83,30,100,1.11,MX,1699312253
216,pompeia,-22.1086,-50.1717,22.88,34,3,4.2,BR,1699312253
217,krasnopavlivka,49.1372,36.3272,9.61,80,5,5.1,UA,1699312254
218,patterson,37.4716,-121.1297,21.17,61,99,2.75,US,1699312254
219,susuman,62.7833,148.1667,-22.93,93,97,0.35,RU,1699312254
220,kill devil hills,36.0307,-75.676,17.21,82,0,0.0,US,1699312254
221,cestos city,5.46,-9.5828,26.76,85,31,2.99,LR,1699312254
222,palikir - national government center,6.9248,158.1611,28.47,84,100,5.66,FM,1699312185
223,formosa do rio preto,-11.0483,-45.1931,24.06,85,96,1.12,BR,1699312255
224,vuktyl,63.8567,57.3094,0.06,87,100,6.71,RU,1699312255
225,lerwick,60.1545,-1.1494,8.0,85,100,2.53,GB,1699312255
226,ramhormoz,31.28,49.6035,22.4,39,1,2.03,IR,1699312043
227,alibag,18.6411,72.8792,26.04,51,100,2.46,IN,1699312255
228,maxixe,-23.8597,35.3472,22.07,88,0,2.8,MZ,1699312255
229,babu,24.4167,111.5167,16.06,78,99,1.99,CN,1699312256
230,bankim,6.083,11.4905,22.89,79,67,0.27,CM,1699312256
231,mareeba,-17.0,145.4333,25.4,74,43,2.59,AU,1699312256
232,yokadouma,3.5167,15.05,23.14,81,81,0.87,CM,1699312256
233,tashtyp,52.7939,89.8983,-5.78,94,100,2.94,RU,1699312256
234,suva,-18.1416,178.4415,28.71,74,75,5.14,FJ,1699312256
235,bella union,-30.2752,-57.6007,20.99,83,0,4.51,UY,1699312257
236,belyy yar,53.6039,91.3903,-5.06,86,75,2.0,RU,1699312257
237,sucre,-19.0333,-65.2627,19.59,47,69,9.2,BO,1699312257
238,arkhangel'sk,64.5401,40.5433,2.85,96,100,2.15,RU,1699312257
239,mandera,3.9366,41.867,23.63,87,95,1.05,KE,1699312257
240,kourou,5.1552,-52.6478,29.03,85,94,5.53,GF,1699312177
241,al ghayzah,16.2079,52.176,26.38,73,74,0.82,YE,1699312179
242,barinas,8.6226,-70.2075,25.77,84,99,1.33,VE,1699312258
243,pierre,44.3683,-100.351,12.7,59,0,3.13,US,1699312258
244,la passe,45.5549,-0.8967,11.1,75,64,7.21,FR,1699312258
245,tazovsky,67.4667,78.7,-16.18,96,93,5.12,RU,1699312258
246,rawlins,41.7911,-107.2387,12.97,22,0,9.26,US,1699312258
247,zarah sharan,33.1467,68.7917,8.82,65,100,0.47,AF,1699312258
248,yarmouth,41.7057,-70.2286,11.12,88,100,1.54,US,1699312259
249,holualoa,19.6228,-155.9522,27.65,73,40,4.63,US,1699312042
250,macapa,0.0389,-51.0664,30.99,70,20,5.66,BR,1699312259
251,kimbe,-5.5502,150.1429,29.38,72,93,1.02,PG,1699312259
252,ust'-kalmanka,52.1207,83.305,-1.8,73,100,7.07,RU,1699312260
253,sitka,57.0531,-135.33,5.94,75,40,4.63,US,1699312179
254,daru,-9.0763,143.2092,26.92,74,73,4.83,PG,1699312184
255,usogorsk,63.4106,48.6872,1.48,96,100,2.92,RU,1699312260
256,kone,-21.0595,164.8658,25.91,53,75,3.49,NC,1699312261
257,malvan,16.0667,73.4667,25.86,67,96,1.22,IN,1699311977
258,oppdal,62.5943,9.6912,-1.48,83,96,2.21,NO,1699312261
259,rouissat,31.9243,5.3502,26.3,13,68,3.76,DZ,1699312261
260,bokani,9.4333,5.2,27.41,60,79,1.4,NG,1699312261
261,puerto rico,-26.796,-55.024,21.58,82,2,0.76,AR,1699312261
262,trancas,-26.2314,-65.2803,30.29,32,53,4.33,AR,1699312262
263,novo aripuana,-5.1206,-60.3797,24.03,97,90,3.29,BR,1699312262
264,kudahuvadhoo,2.6708,72.8944,26.78,80,94,1.58,MV,1699312262
265,naxos,37.1056,25.3764,21.28,88,13,1.34,GR,1699312152
266,la'ie,21.6477,-157.9253,30.98,70,16,4.92,US,1699312262
267,dampit,-8.2116,112.7493,23.43,87,87,1.12,ID,1699312263
268,acopiara,-6.0953,-39.4525,29.35,48,87,2.63,BR,1699312263
269,cachoeira do sul,-30.0392,-52.8939,18.61,83,0,3.78,BR,1699312263
270,chinde,26.8418,88.0763,11.7,74,6,2.27,NP,1699312263
271,neuquen,-38.9516,-68.0591,23.94,46,97,0.0,AR,1699312264
272,los frentones,-26.4077,-61.4137,31.17,32,2,5.29,AR,1699312264
273,st. john's,47.5649,-52.7093,2.86,67,40,7.2,CA,1699311992
274,tagta,41.6504,59.9164,11.96,26,23,1.48,TM,1699312160
275,carolina beach,34.0352,-77.8936,18.9,75,0,2.06,US,1699312264
276,happy valley-goose bay,53.3168,-60.3315,-2.11,63,76,6.77,CA,1699312174
277,carnarvon,-24.8667,113.6333,21.2,79,92,8.74,AU,1699312153
278,ketchikan,55.3422,-131.6461,8.26,87,100,3.09,US,1699312191
279,broome,42.2506,-75.833,10.39,60,0,5.14,US,1699312265
280,aasiaat,68.7098,-52.8699,-11.85,80,97,3.22,GL,1699312265
281,siem reap,13.5,104.0,23.68,94,100,1.14,KH,1699312265
282,punta arenas,-53.15,-70.9167,10.06,61,83,7.65,CL,1699312163
283,nguigmi,14.2495,13.1092,26.67,19,79,5.14,NE,1699312266
284,rabaul,-4.1967,152.1721,27.74,77,100,0.69,PG,1699312266
285,nizhneangarsk,55.7833,109.55,-6.11,60,100,2.24,RU,1699312266
286,san cristobal,7.7669,-72.225,25.1,89,67,1.88,VE,1699311685
287,talnakh,69.4865,88.3972,-19.33,99,84,3.63,RU,1699312172
288,la sarre,48.8002,-79.1996,0.34,99,100,5.37,CA,1699312195
289,kirensk,57.7853,108.1119,-9.46,94,100,0.89,RU,1699312267
290,fandriana,-20.2333,47.3833,15.91,96,100,1.13,MG,1699312048
291,harper,4.375,-7.7169,25.99,88,21,3.23,LR,1699312267
292,tongliao,43.6125,122.2653,-18.1,93,2,2.66,CN,1699312267
293,bonthe,7.5264,-12.505,25.99,88,62,1.58,SL,1699312267
294,ancud,-41.8697,-73.8203,11.6,91,100,7.31,CL,1699312182
295,greenville,35.6127,-77.3663,17.3,68,0,0.0,US,1699312112
296,olinda,-8.0089,-34.8553,26.85,78,40,3.6,BR,1699312153
297,howrah,22.5892,88.3103,22.0,88,20,0.0,IN,1699312268
298,kangding,30.0513,101.9603,6.0,77,5,2.8,CN,1699312268
299,sungai penuh,-2.0833,101.3833,17.99,96,97,0.86,ID,1699312268
300,port lincoln,-34.7333,135.8667,15.73,68,5,4.37,AU,1699312176
301,camarinas,43.1311,-9.1817,11.77,80,99,8.93,ES,1699312268
302,port saint john's,-31.6229,29.5448,20.95,95,96,1.43,ZA,1699312164
303,dalhart,36.0595,-102.5133,26.01,17,0,3.09,US,1699312269
304,urangan,-25.3,152.9,23.27,60,26,6.31,AU,1699312269
305,la ronge,55.1001,-105.2842,-1.86,80,100,4.63,CA,1699312269
306,baiti,13.745,-14.7482,29.61,35,98,2.89,SN,1699312269
307,nyurba,63.2842,118.3319,-15.34,99,100,0.71,RU,1699312180
308,nar'yan-mar,67.6713,53.087,1.73,100,100,8.94,RU,1699312179
309,bukama,-9.2,25.85,20.97,98,100,1.12,CD,1699312270
310,dalnegorsk,44.5604,135.5701,4.78,99,100,1.79,RU,1699312270
311,viqueque,-8.8673,126.3658,27.84,68,34,0.69,TL,1699312270
312,rome,34.257,-85.1647,21.17,50,59,1.56,US,1699311995
313,san luis,-33.295,-66.3356,26.75,32,29,4.7,AR,1699312270
314,puerto baquerizo moreno,-0.9,-89.6,24.74,69,70,5.93,EC,1699312210
315,rabo de peixe,37.8,-25.5833,16.73,99,20,3.09,PT,1699312271
316,ulsteinvik,62.3432,5.8487,8.75,77,99,1.34,NO,1699312271
317,saint-joseph,-21.3667,55.6167,21.37,82,72,4.33,RE,1699312271
318,selfoss,63.9331,-20.9971,1.14,65,83,3.61,IS,1699312271
319,san carlos del zulia,9.0,-71.9135,27.05,80,94,2.95,VE,1699312271
320,tralee,52.2704,-9.7026,9.32,83,54,5.98,IE,1699312272
321,peace river,56.2501,-117.286,1.17,100,100,2.06,CA,1699312248
322,vila velha,-20.3297,-40.2925,22.97,76,20,6.17,BR,1699312272
323,nieuw amsterdam,5.8833,-55.0833,29.09,78,20,1.03,SR,1699312272
324,vadso,70.0744,29.7487,1.09,86,75,4.12,NO,1699312165
325,inirida,3.8653,-67.9239,23.22,98,100,0.47,CO,1699312273
326,nova vicosa,-17.8919,-39.3719,24.02,65,34,5.83,BR,1699312273
327,ola,59.5833,151.2833,-13.23,76,1,4.58,RU,1699312160
328,kendari,-3.945,122.4989,26.72,77,38,0.67,ID,1699312273
329,kikwit,-5.041,18.8162,21.49,97,97,0.61,CD,1699312273
330,rexburg,43.826,-111.7897,9.73,74,100,3.6,US,1699312273
331,panacan,9.2463,118.4082,27.38,82,73,3.02,PH,1699312274
332,poronaysk,49.2167,143.1167,-1.51,95,100,7.89,RU,1699312274
333,mutuali,-14.8706,37.0044,26.3,57,95,2.46,MZ,1699312274
334,bandon,51.7469,-8.7425,7.77,88,10,3.81,IE,1699312274
335,hilo,19.7297,-155.09,29.6,67,0,4.63,US,1699312073
336,cobija,-11.0267,-68.7692,31.86,39,66,1.17,BO,1699312274
337,kuressaare,58.2481,22.5039,8.86,99,75,1.79,EE,1699312274
338,mossel bay,-34.1831,22.146,15.97,82,49,1.99,ZA,1699312189
339,fale old settlement,-9.3852,-171.2468,28.21,77,82,5.09,TK,1699312275
340,erenhot,43.6475,111.9767,-3.42,51,27,5.43,CN,1699312275
341,olyokminsk,60.3736,120.4264,-13.86,94,99,0.8,RU,1699312275
342,lodeynoye pole,60.726,33.5531,3.91,96,100,2.42,RU,1699312156
343,kargasok,59.0556,80.8572,-10.58,98,99,1.34,RU,1699312275
344,mhamid,29.82,-5.72,22.37,36,0,2.42,MA,1699312276
345,elk,53.8282,22.3647,8.92,84,90,6.29,PL,1699312276
346,kalach-na-donu,48.691,43.5264,12.97,90,100,6.49,RU,1699312276
347,el granada,37.5027,-122.4694,21.92,75,100,5.14,US,1699312276
348,valparaiso,-33.0393,-71.6273,13.8,71,40,2.57,CL,1699312255
349,port isabel,26.0734,-97.2086,28.05,67,0,5.66,US,1699312081
350,omdurman,15.6445,32.4777,32.43,28,64,4.04,SD,1699312276
351,aykhal,66.0,111.5,-17.62,100,100,1.58,RU,1699312162
352,cabo san lucas,22.8909,-109.9124,32.01,76,75,4.63,MX,1699311856
353,khandyga,62.6667,135.6,-34.64,98,5,0.74,RU,1699312177
354,mawlamyinegyunn,16.3833,95.2667,24.23,90,86,2.02,MM,1699312277
355,tual,-5.6667,132.75,27.65,80,57,6.13,ID,1699312277
356,al artawiyah,26.5053,45.3444,21.41,41,4,1.27,SA,1699312277
357,moyynkum,44.2914,72.9469,7.03,39,95,8.81,KZ,1699312156
358,upington,-28.4478,21.2561,16.21,51,0,4.12,ZA,1699312278
359,siwa oasis,29.2041,25.5195,24.15,27,0,3.04,EG,1699312278
360,hongseong,36.6009,126.665,7.05,65,72,6.68,KR,1699312278
361,sinabang,2.4803,96.3801,25.35,88,100,2.47,ID,1699312278
362,chokwe,-24.5333,32.9833,24.28,64,6,3.93,MZ,1699312278
363,zhezkent,50.9311,81.3615,-3.26,72,99,4.02,KZ,1699312279
364,springbok,-29.6643,17.8865,8.88,97,22,2.01,ZA,1699312215
365,nagqu,31.5,92.0,-13.75,87,15,1.34,CN,1699311921
366,malanville,11.8685,3.3899,27.58,22,86,3.28,BJ,1699312279
367,guerrero negro,27.9769,-114.0611,25.67,48,0,5.61,MX,1699312279
368,chilaw,7.5758,79.7953,24.01,85,97,3.45,LK,1699312279
369,i-n-salah,27.1935,2.4607,26.16,12,43,1.58,DZ,1699312280
370,paulista florida,-21.6,-51.2,24.72,29,5,3.57,BR,1699312280
371,crane,31.3974,-102.3501,28.04,24,0,3.38,US,1699312175
372,kailua-kona,19.6406,-155.9956,29.17,73,40,4.63,US,1699312172
373,nikolayevsk-on-amure,53.1406,140.73,-7.65,88,100,0.85,RU,1699312280
374,valdivia,-39.8142,-73.2459,11.99,99,100,3.32,CL,1699312280
375,belmonte,-15.8631,-38.8828,22.93,83,99,5.89,BR,1699312280
376,aleksandrov gay,50.147,48.5704,10.58,65,94,5.96,RU,1699312281
377,ulladulla,-35.35,150.4667,22.09,54,8,4.19,AU,1699312281
378,klyuchi,52.2667,79.1667,-1.56,67,88,4.14,RU,1699312159
379,anna,51.4842,40.4299,7.75,92,50,3.76,RU,1699312281
380,kununurra,-15.7667,128.7333,24.99,88,8,0.0,AU,1699312041
381,vernon,50.2581,-119.2691,9.31,85,100,0.51,CA,1699312281
382,aurangabad,19.8833,75.3333,20.22,66,90,2.25,IN,1699312281
383,kachug,53.9606,105.8817,-13.3,98,100,1.79,RU,1699312282
384,rawah,34.4816,41.9093,21.37,36,2,2.76,IQ,1699312282
385,qarazhal,48.0078,70.7903,2.51,39,0,3.84,KZ,1699312282
386,codrington,-38.2667,141.9667,19.56,54,67,2.51,AU,1699312282
387,qingdao,36.0986,120.3719,7.61,41,0,1.98,CN,1699312182
388,bambanglipuro,-7.95,110.2833,25.75,85,99,1.16,ID,1699312282
389,grand falls-windsor,48.9332,-55.6649,0.28,68,12,1.34,CA,1699312177
390,zhigalovo,54.8097,105.1578,-13.34,100,93,0.72,RU,1699312283
391,katsuura,35.1333,140.3,23.23,86,94,15.27,JP,1699312283
392,badger,64.8,-147.5333,-7.02,91,100,2.57,US,1699312173
393,shalya,57.2471,58.7298,0.75,82,39,2.55,RU,1699312284
394,portland,45.5234,-122.6762,13.12,93,75,6.26,US,1699311829
395,riohacha,11.5444,-72.9072,26.82,85,100,1.72,CO,1699312284
396,saint-philippe,-21.3585,55.7679,20.06,84,93,3.87,RE,1699312284
397,petukhovo,55.0692,67.9019,-0.58,69,0,3.46,RU,1699312284
398,tshabong,-26.05,22.45,22.88,18,93,7.29,BW,1699312285
399,valle de la pascua,9.2155,-66.0073,25.24,91,91,1.94,VE,1699312285
400,kutum,14.2,24.6667,22.34,20,11,3.93,SD,1699312285
401,tolanaro,-25.0319,46.9987,21.86,85,96,7.41,MG,1699312285
402,zhezqazghan,47.7833,67.7667,2.89,48,43,4.79,KZ,1699312286
403,betio village,1.358,172.9211,32.02,72,100,2.88,KI,1699312286
404,alofi,-19.0595,-169.9187,26.94,61,75,6.17,NU,1699312286
405,laguna,38.421,-121.4238,22.25,51,40,5.66,US,1699312187
406,villa ojo de agua,-29.5,-63.6938,26.58,33,0,6.37,AR,1699312286
407,champerico,14.3,-91.9167,27.3,82,97,1.08,GT,1699312170
408,acajutla,13.5928,-89.8275,26.9,85,100,1.38,SV,1699312287
409,sarishabari,24.7333,89.8333,21.74,78,9,3.64,BD,1699312287
410,roma,43.2128,-75.4557,9.93,64,0,4.63,US,1699312287
411,lorengau,-2.0226,147.2712,28.53,79,60,2.62,PG,1699312287
412,lijiang,26.8688,100.2207,3.2,66,0,2.15,CN,1699312287
413,les avirons,-21.2418,55.3394,21.03,79,42,5.41,RE,1699312287
414,amet,25.3,73.9333,21.77,38,0,2.64,IN,1699312288
415,nantucket,41.2835,-70.0995,12.06,80,100,5.14,US,1699312288
416,maridi,4.9158,29.4742,20.31,93,43,0.89,SS,1699312288
417,laurentides,46.4334,-74.9826,0.95,95,100,5.43,CA,1699312288
418,guixi,28.2886,117.2133,12.14,77,28,1.72,CN,1699312288
419,kattivakkam,13.2167,80.3167,27.05,90,99,2.51,IN,1699312289
420,acarau,-2.8856,-40.12,27.11,72,11,8.0,BR,1699312289
421,fort st. john,56.2499,-120.8529,-1.06,100,100,0.0,CA,1699312215
422,laojunmiao,39.8333,97.7333,-1.42,41,67,1.87,CN,1699312289
423,bandarbeyla,9.4942,50.8122,25.93,86,85,4.52,SO,1699312289
424,shihezi,44.3,86.0333,3.28,39,8,2.05,CN,1699312289
425,gadzhiyevo,69.2551,33.3362,-0.82,91,100,1.09,RU,1699312185
426,moju,-1.8839,-48.7689,25.82,87,91,1.87,BR,1699312290
427,palmer,42.1584,-72.3287,9.75,71,75,0.45,US,1699312290
428,magadan,59.5667,150.8,-13.1,73,1,3.35,RU,1699312290
429,chubbuck,42.9208,-112.4661,10.44,84,100,5.14,US,1699312290
430,eastham,41.8301,-69.9739,10.55,78,100,5.05,US,1699312290
431,kapit,2.0167,112.9333,23.45,99,95,0.28,MY,1699312291
432,horta,38.5333,-28.6333,17.42,67,76,8.83,PT,1699312191
433,solikamsk,59.6196,56.7729,0.89,89,97,3.4,RU,1699312291
434,bikenibeu village,1.3673,173.1241,31.98,70,75,4.63,KI,1699312291
435,maun,-19.9833,23.4167,24.98,65,0,3.09,BW,1699312291
436,berdigestyakh,62.0989,126.6992,-25.33,99,13,1.57,RU,1699312291
437,morehead city,34.7229,-76.726,18.33,79,2,2.85,US,1699312057
438,bhag,29.0415,67.8239,23.54,44,75,6.88,PK,1699312292
439,chauk,20.8833,94.8167,23.67,79,53,1.92,MM,1699312292
440,fayroz koh,34.5195,65.2509,5.45,78,74,1.95,AF,1699312292
441,mwene-ditu,-7.0,23.45,18.53,98,99,1.08,CD,1699312292
442,sao joao da barra,-21.6403,-41.0511,22.05,75,1,5.22,BR,1699312293
443,kiunga,-6.1219,141.2906,24.96,93,100,1.48,PG,1699312293
444,warmbad,-28.45,18.7333,13.24,69,0,5.0,NA,1699312293
445,kuta,-8.7233,115.1723,26.97,88,40,3.13,ID,1699312294
446,troitskiy,57.0603,63.7481,-1.73,91,2,2.64,RU,1699312294
447,san sebastian de la gomera,28.0916,-17.1133,23.42,68,0,6.17,ES,1699312294
448,pacific grove,36.6177,-121.9166,19.09,83,100,5.14,US,1699312294
449,pemba,-12.974,40.5178,26.08,81,3,4.13,MZ,1699312159
450,bom jesus da lapa,-13.255,-43.4181,25.65,76,98,2.57,BR,1699312057
451,phon charoen,18.0333,103.1667,22.82,93,69,1.65,TH,1699312295
452,tanabe,33.7333,135.3667,19.56,77,75,6.69,JP,1699312295
453,salalah,17.0151,54.0924,25.66,75,100,0.55,OM,1699312025
454,floro,61.5996,5.0328,5.98,75,100,3.09,NO,1699312295
455,dryden,49.7833,-92.7503,-2.84,93,100,6.17,CA,1699312295
456,ugoofaaru,5.6667,73.0,26.99,75,100,1.21,MV,1699312295
457,corinto,37.9407,22.9573,19.38,75,1,3.54,GR,1699312295
458,maralal,1.0968,36.698,15.18,91,72,2.0,KE,1699312296
459,aconibe,1.2968,10.9369,19.99,99,100,0.63,GQ,1699312296
460,paraty,-23.2178,-44.7131,19.59,86,48,0.61,BR,1699312031
461,manoharpur,27.3,75.95,20.94,39,11,1.5,IN,1699312296
462,massawa,15.6097,39.45,29.82,64,97,1.72,ER,1699312296
463,kondopoga,62.2057,34.2614,1.82,99,100,2.54,RU,1699312297
464,goundam,16.4145,-3.6708,31.34,14,76,3.06,ML,1699312297
465,panevezys,55.7333,24.35,8.51,92,90,5.75,LT,1699312172
466,minas de marcona,-15.2119,-75.1103,15.92,76,50,6.53,PE,1699312297
467,montmagny,48.9734,2.3469,10.36,92,75,4.63,FR,1699312297
468,pedregal,8.3667,-82.4333,27.33,96,40,4.47,PA,1699312298
469,nuzvid,16.7833,80.85,22.75,94,79,1.98,IN,1699312298
470,bealanana,-14.55,48.7333,17.07,97,39,1.31,MG,1699312298
471,okahao,-17.885,15.0667,18.65,25,78,4.88,NA,1699312298
472,ostersund,63.1792,14.6357,1.45,100,75,2.06,SE,1699312158
473,lotoshino,56.2267,35.6414,5.88,83,100,5.97,RU,1699312298
474,polyarnyy,69.1989,33.4478,-0.53,89,97,1.0,RU,1699312299
475,rotorua,-38.1387,176.2452,14.24,95,72,1.51,NZ,1699311648
476,saint-felicien,48.6501,-72.4491,-0.72,47,100,4.44,CA,1699312299
477,contamana,-7.3333,-75.0167,27.51,64,97,0.88,PE,1699312299
478,ash shatrah,31.4117,46.1742,22.92,42,13,4.03,IQ,1699312299
479,iquique,-20.2208,-70.1431,19.02,81,49,4.17,CL,1699311642
480,jayapura,-2.5333,140.7,28.66,83,100,1.35,ID,1699312300
481,cotronei,39.1582,16.7809,13.75,41,5,2.89,IT,1699312300
482,rikaze,29.25,88.8833,-1.36,60,0,1.65,CN,1699312176
483,mount gambier,-37.8333,140.7667,18.47,60,69,1.62,AU,1699312300
484,mali,12.079,-12.2982,18.15,48,27,1.58,GN,1699312300
485,verkhnevilyuysk,63.4453,120.3167,-16.06,98,97,1.78,RU,1699312300
486,vilyuchinsk,52.9306,158.4028,-3.93,70,60,3.44,RU,1699312301
487,dunedin,-45.8742,170.5036,12.67,64,50,2.68,NZ,1699312142
488,pathein,16.7833,94.7333,24.43,90,21,2.06,MM,1699312301
489,prineville,44.2999,-120.8345,12.06,53,98,3.58,US,1699312301
490,espanola,35.9911,-106.0806,24.22,14,0,5.34,US,1699312301
491,west lafayette,40.4259,-86.9081,19.56,73,0,2.57,US,1699312248
492,post,33.1909,-101.3782,28.87,20,0,4.65,US,1699312301
493,arroyo seco,-33.1549,-60.5086,23.92,10,0,3.03,AR,1699312302
494,berezovo,63.9381,65.0419,0.99,95,96,3.76,RU,1699312302
495,vernal,40.4555,-109.5287,16.84,23,0,2.57,US,1699312302
496,alice springs,-23.7,133.8833,27.75,11,0,1.03,AU,1699312154
497,ponta delgada,37.7333,-25.6667,17.4,63,20,3.09,PT,1699312303
498,pasco,28.292,-82.4165,23.78,58,19,1.79,US,1699312209
499,ghanzi,-21.5667,21.7833,26.59,43,80,5.82,BW,1699312303
500,indramayu,-6.3264,108.32,27.81,73,100,1.77,ID,1699312303
501,natal,-5.795,-35.2094,27.36,74,20,3.09,BR,1699312100
502,tatahuicapan,18.2333,-94.75,23.35,83,90,2.75,MX,1699312303
503,arsen'yev,44.1631,133.2733,-2.98,84,100,3.88,RU,1699312303
504,ballina,-28.8667,153.5667,19.32,61,36,2.52,AU,1699312303
505,saint-paul,-21.0096,55.2707,23.05,95,79,0.57,RE,1699312304
506,constitucion,-35.3333,-72.4167,13.52,82,100,1.96,CL,1699312304
507,koubia,11.5833,-11.9,21.48,53,5,1.34,GN,1699312304
508,santiago de cao,-7.9589,-79.2392,19.07,88,0,4.12,PE,1699312304
509,smolensk,55.0,33.0,8.41,90,100,5.5,RU,1699312305
510,paradip garh,20.3167,86.6167,23.7,74,16,2.84,IN,1699312305
511,vikulovo,56.8167,70.6107,-1.96,82,65,3.5,RU,1699312305
512,harvard,42.4222,-88.6137,16.97,62,80,0.89,US,1699312305
513,paraiso,9.8383,-83.8656,22.2,76,91,0.67,CR,1699312305
514,barah,13.7,30.3667,28.92,31,89,2.98,SD,1699312306
515,strezhevoy,60.7333,77.5889,-8.91,97,100,0.89,RU,1699312306
516,sotkamo,64.1333,28.4167,1.01,100,100,1.85,FI,1699312306
517,ath thawrah,35.8469,38.5443,19.72,74,4,6.26,SY,1699312306
518,wickenburg,33.9686,-112.7296,30.11,17,0,4.96,US,1699312306
519,cole harbour,44.6724,-63.4751,4.71,76,84,3.6,CA,1699312307
520,gisborne,-38.6533,178.0042,16.02,62,57,4.55,NZ,1699312229
521,bathsheba,13.2167,-59.5167,28.34,83,40,7.72,BB,1699312307
522,pedernales,18.0384,-71.744,27.85,74,49,1.11,DO,1699312307
523,tommot,58.9564,126.2925,-26.16,98,19,0.75,RU,1699312308
524,yinchuan,38.4681,106.2731,4.92,20,13,0.59,CN,1699312308
525,ito,34.9667,139.0833,20.93,93,94,12.16,JP,1699312281
526,strathmore,51.0501,-113.3852,7.7,86,56,4.63,CA,1699312308
527,priozersk,61.0393,30.1291,4.41,98,100,2.15,RU,1699312308
528,namibe,-15.1961,12.1522,19.55,68,37,1.82,AO,1699312185
529,muisne,0.6,-80.0333,25.27,79,80,2.92,EC,1699312309
530,walvis bay,-22.9575,14.5053,14.49,73,0,5.03,NA,1699312309
531,yuksekova,37.5736,44.2872,1.86,93,40,1.03,TR,1699312309
532,bogo,11.0517,124.0055,27.8,82,80,3.48,PH,1699312309
533,bamboo flat,11.7,92.7167,27.33,81,97,1.53,IN,1699312309
534,ocean shores,46.9737,-124.1563,13.3,97,100,2.57,US,1699312309
535,orai,25.9833,79.4667,21.1,38,74,1.81,IN,1699312310
536,voss,60.623,6.4229,2.52,85,100,1.39,NO,1699312310
537,sandnessjoen,66.0217,12.6316,0.29,84,100,4.03,NO,1699312310
538,chernyshevskiy,63.0128,112.4714,-17.91,100,100,0.46,RU,1699312310
539,vrangel',42.7297,133.0839,2.36,70,87,8.67,RU,1699312310
540,akureyri,65.6835,-18.0878,-2.16,98,100,1.25,IS,1699312190
541,gamba,-2.65,10.0,25.68,89,100,2.97,GA,1699312311
542,madalena,41.2162,-8.3345,10.32,87,35,1.55,PT,1699312311
543,el calafate,-50.3408,-72.2768,9.19,54,22,4.04,AR,1699312311
544,egilsstadir,65.2653,-14.3948,0.95,93,75,1.03,IS,1699312311
545,trairi,-3.2778,-39.2689,26.85,73,15,4.42,BR,1699312279
546,kavaratti,10.5669,72.642,28.1,75,91,2.83,IN,1699312163
547,amursk,50.2261,136.8994,-4.45,71,100,9.68,RU,1699312238
548,dikhil,11.5,42.1667,23.34,65,52,2.35,DJ,1699312312
549,abra pampa,-22.7205,-65.697,13.86,55,82,2.89,AR,1699312312
550,starogard gdanski,53.964,18.5264,9.47,82,71,6.4,PL,1699312312
551,chayan,43.0297,69.3772,11.29,39,100,3.47,KZ,1699312312
552,sarykemer,43.0,71.5,5.71,56,100,0.57,KZ,1699312312
553,flin flon,54.7682,-101.865,-6.09,86,100,3.6,CA,1699312312
554,ryotsu-minato,38.0833,138.4333,16.5,69,100,12.66,JP,1699312313
555,grand haven,43.0631,-86.2284,16.35,78,39,1.34,US,1699311715
556,slave lake,55.2834,-114.769,-0.01,100,100,5.14,CA,1699312313
557,arawa,-6.2132,155.5367,30.61,67,98,0.43,PG,1699312313
558,maputo,-25.9653,32.5892,23.3,77,60,4.0,MZ,1699312313
559,shizunai-furukawacho,42.3339,142.3669,15.9,91,100,4.61,JP,1699312314
560,palembang,-2.9167,104.7458,25.05,94,20,1.03,ID,1699312314
561,muhos,64.808,25.9931,0.5,100,100,1.48,FI,1699312314
562,papao,-17.75,-149.55,25.37,84,55,4.28,PF,1699312152
563,pitimbu,-7.4706,-34.8086,27.33,72,33,4.56,BR,1699312314
564,labytnangi,66.6572,66.4183,-3.36,97,100,0.68,RU,1699312314
565,santa maria,-29.6842,-53.8069,18.78,91,0,2.88,BR,1699312314
566,whakatane,-37.9585,176.9854,16.6,63,35,3.4,NZ,1699312315
567,west hattiesburg,31.3191,-89.3751,25.0,51,0,2.06,US,1699312315
568,kodiak,57.79,-152.4072,2.73,56,20,2.57,US,1699312315
569,hauterive,46.0901,3.4459,9.42,76,51,3.8,FR,1699312315
570,nykarleby,63.5228,22.5307,3.28,99,100,1.7,FI,1699312315
571,medicine hat,50.0501,-110.6683,9.56,49,79,0.45,CA,1699312064
572,yangshuo,24.7808,110.4897,15.64,76,100,0.49,CN,1699312315
573,anandnagar,27.1,83.2833,18.94,59,50,1.1,IN,1699312316
574,fort mcmurray,56.7268,-111.381,1.73,86,100,5.14,CA,1699312018
575,brak,27.5496,14.2714,24.35,17,0,2.47,LY,1699312316
576,dawson creek,55.7666,-120.2362,-2.2,93,100,2.06,CA,1699312316
577,agria,47.9026,20.3733,8.45,92,1,0.85,HU,1699312316
578,arraial do cabo,-22.9661,-42.0278,21.74,68,2,5.09,BR,1699312165
579,wabag,-5.4781,143.7021,14.68,99,100,0.32,PG,1699312316
580,morant bay,17.8815,-76.4093,27.62,82,87,3.35,JM,1699312317
581,ierapetra,35.01,25.7353,21.19,75,0,1.79,GR,1699312317
582,herkimer,43.0256,-74.986,9.89,66,100,4.63,US,1699312317
583,ciudad lazaro cardenas,17.9583,-102.2,28.36,79,14,2.4,MX,1699312317
