City_ID,City,Lat,Lng,Max Temp,Humidity,Cloudiness,Wind Speed,Country,Date
0,chonchi,-42.6128,-73.8092,285.44,98,100,2.05,CL,1699129311
1,farasan,16.7022,42.1183,302.9,69,62,1.55,SA,1699129513
2,grytviken,-54.2811,-36.5092,273.19,74,7,2.32,GS,1699128968
3,afaahiti,-17.75,-149.2833,299.08,95,98,3.82,PF,1699129513
4,pandan,14.0453,124.1694,299.65,86,99,2.85,PH,1699129513
5,waitangi,-43.9535,-176.5597,286.94,95,100,0.45,NZ,1699129513
6,alvorada,-12.48,-49.1247,305.99,44,72,1.37,BR,1699129514
7,christchurch,-43.5333,172.6333,286.43,94,100,2.57,NZ,1699129514
8,blackmans bay,-43.0167,147.3167,283.22,86,31,1.22,AU,1699129514
9,kimberley,-28.7323,24.7623,289.98,82,65,8.75,ZA,1699129514
10,port-aux-francais,-49.35,70.2167,277.48,87,99,14.83,TF,1699129514
11,tazacorte,28.629,-17.9293,295.69,82,20,5.66,ES,1699129221
12,labuan,5.2767,115.2417,299.35,94,20,0.0,MY,1699129515
13,venado,22.9333,-101.0833,296.54,30,26,3.09,MX,1699129515
14,saint-francois,46.4154,3.9054,284.62,77,0,5.66,FR,1699129216
15,bay roberts,47.5999,-53.2648,285.0,84,89,4.47,CA,1699129515
16,adamstown,-25.066,-130.1015,295.84,75,94,6.81,PN,1699129177
17,sinabang,2.4803,96.3801,298.71,88,100,0.67,ID,1699129516
18,morehead city,34.7229,-76.726,295.18,79,100,5.14,US,1699129282
19,lompoc,34.6391,-120.4579,303.03,40,0,4.12,US,1699129192
20,khamis mushait,18.3064,42.7292,289.49,41,0,0.0,SA,1699129516
21,yellowknife,62.456,-114.3525,268.38,97,100,5.14,CA,1699129516
22,isla mujeres,21.2311,-86.731,298.24,85,100,7.93,MX,1699129517
23,kununurra,-15.7667,128.7333,300.14,89,17,3.09,AU,1699129172
24,albany,42.6001,-73.9662,287.56,55,90,1.39,US,1699128950
25,san felice circeo,41.2372,13.0942,289.21,99,86,1.79,IT,1699129517
26,hermanus,-34.4187,19.2345,288.92,89,100,1.51,ZA,1699129178
27,hawaiian paradise park,19.5933,-154.9731,300.88,62,75,0.45,US,1699129221
28,broken hill,-31.95,141.4333,285.4,30,0,4.64,AU,1699129517
29,lazaro cardenas,17.9583,-102.2,302.84,70,87,3.44,MX,1699129501
30,kainan,34.15,135.2,290.17,78,100,2.36,JP,1699129518
31,uyuni,-20.4597,-66.825,294.22,17,7,7.99,BO,1699129518
32,vilyuchinsk,52.9306,158.4028,275.3,76,69,4.94,RU,1699129245
33,stanley,54.868,-1.6985,281.92,94,75,3.09,GB,1699129222
34,floro,61.5996,5.0328,284.13,62,100,5.66,NO,1699129519
35,college,64.8569,-147.8028,267.33,61,100,4.63,US,1699129204
36,east london,-33.0153,27.9116,290.79,77,66,2.83,ZA,1699129189
37,geraldton,-28.7667,114.6,293.38,77,100,4.12,AU,1699129235
38,kohlu,29.8962,69.252,290.14,42,73,0.53,PK,1699129520
39,bethel,41.3712,-73.414,288.2,51,0,1.54,US,1699129182
40,kerman,30.2832,57.0788,287.07,54,40,3.09,IR,1699129520
41,edinburgh of the seven seas,-37.0676,-12.3116,285.07,72,100,11.81,SH,1699129176
42,duncan,34.5023,-97.9578,297.27,52,0,5.66,US,1699129521
43,iqaluit,63.7506,-68.5145,269.0,68,100,5.14,CA,1699129179
44,puerto ayora,-0.7393,-90.3518,302.13,84,62,3.58,EC,1699129175
45,mili,6.0815,171.735,302.14,75,100,6.82,MH,1699129521
46,mount gambier,-37.8333,140.7667,283.02,87,16,3.93,AU,1699128941
47,lerwick,60.1545,-1.1494,282.15,83,80,5.61,GB,1699129521
48,nenjiang,49.1833,125.2167,257.31,97,76,1.15,CN,1699129522
49,bikenibeu village,1.3673,173.1241,302.13,74,75,0.0,KI,1699129522
50,viqueque,-8.8673,126.3658,296.21,88,58,1.34,TL,1699129522
51,olonkinbyen,70.9221,-8.7187,272.75,90,99,15.02,SJ,1699129175
52,amga,60.8953,131.9608,254.82,95,100,3.42,RU,1699129522
53,long beach,33.767,-118.1892,304.72,58,0,4.63,US,1699129239
54,howard springs,-12.497,131.047,299.19,83,21,1.89,AU,1699129256
55,nova vicosa,-17.8919,-39.3719,300.32,78,91,7.41,BR,1699129229
56,karratha,-20.7377,116.8463,303.1,36,14,4.39,AU,1699129523
57,mikhaylov,54.2292,39.0186,280.75,80,100,7.77,RU,1699129523
58,ghanzi,-21.5667,21.7833,296.06,64,19,5.51,BW,1699129523
59,ishigaki,24.3448,124.1572,299.22,73,20,4.12,JP,1699129524
60,papatowai,-46.5619,169.4708,281.54,71,47,2.57,NZ,1699129179
61,lalago,-3.45,33.95,296.53,57,38,4.98,TZ,1699129524
62,happy valley-goose bay,53.3168,-60.3315,275.32,51,40,8.23,CA,1699128911
63,ikovka,55.6089,64.9375,269.85,93,88,2.05,RU,1699129524
64,aioun,16.6614,-9.6149,304.67,9,0,3.92,MR,1699129525
65,tianjin,39.1422,117.1767,286.12,82,20,4.0,CN,1699129523
66,ribeira grande,38.5167,-28.7,289.37,63,75,3.6,PT,1699129170
67,priozersk,61.0393,30.1291,279.32,91,100,5.4,RU,1699129525
68,qaqortoq,60.7167,-46.0333,271.27,72,14,2.79,GL,1699129196
69,urengoy,65.9667,78.3667,264.39,85,100,8.23,RU,1699129526
70,grand falls-windsor,48.9332,-55.6649,282.32,81,100,1.34,CA,1699129184
71,port lincoln,-34.7333,135.8667,285.66,84,15,5.78,AU,1699129177
72,general mosconi,-23.1851,-62.303,301.01,19,5,1.71,AR,1699129526
73,bridgewater,44.3835,-64.5155,287.1,70,100,3.6,CA,1699129526
74,paradip garh,20.3167,86.6167,298.67,80,100,0.3,IN,1699129526
75,bubaque,11.2833,-15.8333,301.6,77,3,5.07,GW,1699129401
76,altentreptow,53.6833,13.25,281.97,68,100,7.4,DE,1699129527
77,dryden,49.7833,-92.7503,271.31,74,100,2.57,CA,1699129175
78,al mawsil al jadidah,36.3346,43.0978,293.3,48,0,2.55,IQ,1699129527
79,antofagasta,-23.65,-70.4,291.75,65,3,3.95,CL,1699129331
80,holualoa,19.6228,-155.9522,300.8,66,20,4.12,US,1699129246
81,avarua,-21.2078,-159.775,297.18,60,75,5.66,CK,1699129137
82,alofi,-19.0595,-169.9187,299.09,69,75,5.66,NU,1699128929
83,markovo,57.3206,107.0881,258.83,82,87,1.84,RU,1699129528
84,bilibino,68.0546,166.4372,252.39,99,45,2.27,RU,1699129185
85,klyuchi,52.2667,79.1667,276.08,97,100,5.35,RU,1699129200
86,poso,-1.3959,120.7524,298.0,84,72,1.9,ID,1699129528
87,medina,24.4686,39.6142,301.39,34,20,3.6,SA,1699129528
88,port alfred,-33.5906,26.891,289.92,87,100,5.33,ZA,1699129528
89,sandpoint,48.2766,-116.5533,281.92,90,100,0.89,US,1699129418
90,kayangel,8.0823,134.7173,301.64,76,45,3.48,PW,1699129529
91,magadan,59.5667,150.8,269.0,65,100,6.31,RU,1699129201
92,saipan,15.1355,145.701,300.54,83,75,4.12,MP,1699129184
93,isafjordur,66.0755,-23.124,274.33,96,100,16.81,IS,1699129174
94,georgetown,5.4112,100.3354,300.11,87,20,1.54,MY,1699128963
95,aberdeen,57.1437,-2.0981,279.56,100,40,2.57,GB,1699129529
96,greymouth,-42.4667,171.2,284.21,85,97,1.86,NZ,1699129530
97,puerto natales,-51.7236,-72.4875,282.4,61,40,9.77,CL,1699129183
98,bria,6.5423,21.9863,294.35,96,100,1.19,CF,1699129530
99,suntar,62.1444,117.6319,250.76,99,15,1.53,RU,1699129530
100,hadibu,12.65,54.0333,299.51,79,100,3.4,YE,1699129199
101,atafu village,-8.5421,-172.5159,301.69,77,77,4.98,TK,1699129194
102,berbera,10.4396,45.0143,301.11,71,92,2.2,SO,1699129530
103,alaghsas,17.0187,8.0168,301.53,13,5,2.83,NE,1699129201
104,bredasdorp,-34.5322,20.0403,288.44,88,100,1.78,ZA,1699129179
105,perelyub,51.8667,50.3667,275.68,77,11,3.36,RU,1699129531
106,gunjur,13.2019,-16.7339,300.19,89,0,2.06,GM,1699129531
107,praia da vitoria,38.7333,-27.0667,288.29,72,40,8.68,PT,1699129243
108,polyarnyy,69.1989,33.4478,266.92,85,100,3.94,RU,1699129176
109,ilulissat,69.2167,-51.1,269.16,50,40,4.63,GL,1699129195
110,punta arenas,-53.15,-70.9167,284.21,50,40,12.35,CL,1699129179
111,kailua-kona,19.6406,-155.9956,302.37,66,20,4.12,US,1699129532
112,doka,13.5167,35.7667,298.51,67,49,5.0,SD,1699129532
113,raja,8.4596,25.678,295.21,89,100,2.88,SS,1699129532
114,puerto armuelles,8.2833,-82.8667,301.14,84,65,3.13,PA,1699129508
115,belaya kholunitsa,58.84,50.8528,271.22,85,69,1.67,RU,1699129532
116,abadeh,31.1608,52.6506,286.3,54,68,0.55,IR,1699129533
117,la passe,45.5549,-0.8967,288.16,76,100,19.58,FR,1699129174
118,nepomuceno,-21.2358,-45.2358,299.33,56,100,5.61,BR,1699129533
119,hithadhoo,-0.6,73.0833,300.44,78,100,6.35,MV,1699129185
120,enewetak,11.3474,162.3373,301.69,77,81,9.78,MH,1699129192
121,taro,-8.3862,115.28,295.15,96,33,0.28,ID,1699129533
122,nogliki,51.8333,143.1667,267.23,72,3,9.83,RU,1699129533
123,nguigmi,14.2495,13.1092,301.96,27,98,1.68,NE,1699129534
124,saint-joseph,-21.3667,55.6167,296.19,90,98,4.33,RE,1699129214
125,smolyaninovo,43.2956,132.4675,273.85,47,100,1.44,RU,1699129534
126,wewak,-3.5534,143.6268,298.42,87,100,1.86,PG,1699129534
127,santa terezinha,-29.9002,-50.0904,290.8,67,73,9.97,BR,1699129534
128,port mathurin,-19.6833,63.4167,297.59,76,99,3.87,MU,1699129182
129,keflavik,64.0049,-22.5624,277.39,70,0,10.8,IS,1699129193
130,airway heights,47.6446,-117.5933,285.05,80,100,6.69,US,1699129535
131,briare,47.6334,2.7438,283.93,82,100,11.35,FR,1699129535
132,nova sintra,14.8667,-24.7167,296.73,74,6,4.1,CV,1699129173
133,margaret river,-33.95,115.0667,291.04,51,3,3.08,AU,1699129188
134,nar'yan-mar,67.6713,53.087,268.77,95,11,4.92,RU,1699129230
135,bequimao,-2.4489,-44.7825,303.65,58,1,3.33,BR,1699129536
136,whitehorse,60.7161,-135.0538,272.65,100,100,2.06,CA,1699129182
137,ushuaia,-54.8,-68.3,279.96,87,75,9.26,AR,1699129003
138,aasiaat,68.7098,-52.8699,267.21,95,100,2.05,GL,1699129182
139,tazovsky,67.4667,78.7,263.08,89,100,7.8,RU,1699129231
140,codrington,-38.2667,141.9667,284.12,82,14,5.43,AU,1699129190
141,bartoszyce,54.2535,20.8082,281.99,91,3,3.5,PL,1699129536
142,badger,64.8,-147.5333,267.29,62,100,4.63,US,1699129186
143,ozersk,55.7556,60.7028,269.44,95,40,1.27,RU,1699129249
144,plettenberg bay,-34.0527,23.3716,289.1,87,100,4.15,ZA,1699129399
145,hamilton,39.1834,-84.5333,293.51,44,0,6.17,US,1699129177
146,korla,41.7597,86.1469,278.4,28,8,0.39,CN,1699129537
147,bhakkar,31.6253,71.0657,296.37,31,5,0.68,PK,1699129537
148,tiksi,71.6872,128.8694,250.47,98,86,3.69,RU,1699129175
149,jamestown,42.097,-79.2353,285.38,47,100,2.68,US,1699129104
150,cidreira,-30.1811,-50.2056,290.74,66,89,9.3,BR,1699129255
151,shubarshi,48.5872,57.1869,280.74,64,100,3.6,KZ,1699129538
152,thompson,55.7435,-97.8558,265.24,67,100,1.54,CA,1699129184
153,mao,39.8885,4.2658,292.46,88,75,11.83,ES,1699129538
154,lebu,-37.6167,-73.65,286.97,77,96,3.66,CL,1699129180
155,fale old settlement,-9.3852,-171.2468,301.55,74,88,4.42,TK,1699129260
156,haci zeynalabdin,40.6233,49.5586,288.23,77,23,3.57,AZ,1699129538
157,santa sylvina,-27.8326,-61.1375,299.85,22,0,3.67,AR,1699129539
158,rouyn-noranda,48.2398,-79.0288,274.2,69,75,2.57,CA,1699129539
159,cintalapa de figueroa,16.7333,-93.7167,292.05,94,100,4.71,MX,1699129539
160,anadyr,64.75,177.4833,267.43,79,100,4.0,RU,1699129181
161,amvrosiyivka,47.7935,38.4777,285.76,73,99,5.96,UA,1699129539
162,arvayheer,46.2639,102.775,262.24,58,0,9.11,MN,1699129540
163,la ronge,55.1001,-105.2842,269.29,86,100,5.66,CA,1699129196
164,mocimboa,-11.3167,40.35,298.27,81,10,3.53,MZ,1699129540
165,port augusta,-32.5,137.7667,286.32,46,0,2.49,AU,1699129541
166,kapuskasing,49.4169,-82.4331,273.2,64,75,4.12,CA,1699129541
167,tolanaro,-25.0319,46.9987,294.4,73,100,6.16,MG,1699129199
168,aldan,58.6031,125.3894,254.85,94,100,3.5,RU,1699129541
169,sydney,-33.8679,151.2073,289.46,91,75,5.66,AU,1699128945
170,yilan,24.757,121.753,297.05,86,1,1.33,TW,1699129542
171,kalispell,48.1958,-114.3129,281.3,92,100,0.0,US,1699129542
172,taroa,8.7058,171.2275,300.88,80,100,8.82,MH,1699129246
173,guanare,9.0418,-69.7421,303.96,58,37,0.66,VE,1699129542
174,new norfolk,-42.7826,147.0587,283.87,85,64,0.91,AU,1699129542
175,taoudenni,22.6783,-3.9836,304.49,10,0,2.23,ML,1699129186
176,west island,-12.1568,96.8225,299.14,83,40,5.66,CC,1699129192
177,rurrenabaque,-14.4413,-67.5278,297.72,52,96,0.89,BO,1699129543
178,ivatsevichy,52.709,25.3401,282.04,83,100,1.96,BY,1699129543
179,san ignacio de velasco,-16.3667,-60.95,307.25,30,93,1.18,BO,1699129543
180,nema,57.5067,50.5011,271.82,89,16,2.46,RU,1699129543
181,carnarvon,-24.8667,113.6333,293.62,88,2,4.8,AU,1699129194
182,sault ste. marie,46.5168,-84.3333,280.31,49,0,5.14,CA,1699129543
183,yaren,-0.5472,166.916,301.27,76,100,3.24,NR,1699129241
184,ak-suu,42.4995,78.527,278.14,33,95,2.45,KG,1699129544
185,okha,53.5739,142.9478,266.02,67,100,11.8,RU,1699129544
186,udi,6.3144,7.4258,296.26,89,99,1.39,NG,1699129544
187,nemuro,43.3236,145.575,281.31,74,96,1.73,JP,1699129224
188,punta del este,-34.9667,-54.95,289.21,77,20,5.14,UY,1699129544
189,bocas del toro,9.3333,-82.25,299.92,88,100,0.45,PA,1699129544
190,north lakhimpur,27.2333,94.1167,290.66,90,96,1.75,IN,1699129545
191,ta`u,-14.2336,-169.5144,299.65,81,79,10.57,AS,1699129175
192,papao,-17.75,-149.55,299.97,94,98,5.5,PF,1699129211
193,san patricio,28.017,-97.5169,302.2,39,42,3.45,US,1699129173
194,cabinda,-5.55,12.2,300.23,89,75,0.0,AO,1699129545
195,invercargill,-46.4,168.35,283.16,88,56,0.45,NZ,1699129173
196,acarau,-2.8856,-40.12,301.46,72,15,8.46,BR,1699129545
197,sechelt,49.4664,-123.7694,291.12,92,95,5.7,CA,1699129545
198,motygino,58.1831,94.7592,267.47,64,100,3.58,RU,1699129545
199,ketchikan,55.3422,-131.6461,284.14,93,100,0.0,US,1699129238
200,carahue,-38.7,-73.1667,290.36,55,21,3.65,CL,1699129110
201,pacific grove,36.6177,-121.9166,298.84,61,0,2.06,US,1699129546
202,prince rupert,54.3161,-130.3201,286.2,72,100,12.86,CA,1699129248
203,rosso,16.4986,-15.8153,306.86,13,23,3.64,SN,1699129546
204,zhaotong,27.3167,103.7167,282.88,83,0,1.66,CN,1699129547
205,petropavlovsk-kamchatsky,53.0452,158.6483,274.48,79,75,6.0,RU,1699129190
206,yingchuan,34.1628,113.4639,287.14,92,100,3.0,CN,1699129547
207,sao joao da barra,-21.6403,-41.0511,299.2,77,92,8.89,BR,1699129177
208,kuching,1.55,110.3333,300.38,93,20,0.51,MY,1699129547
209,weno,7.4515,151.8468,301.64,77,87,3.02,FM,1699129547
210,gulu,2.7746,32.299,291.68,95,99,1.09,UG,1699129547
211,pineville,31.3224,-92.4343,300.11,34,0,3.09,US,1699129547
212,tropea,38.6754,15.8948,291.76,59,57,5.45,IT,1699129548
213,talnakh,69.4865,88.3972,265.49,94,100,7.58,RU,1699129194
214,saint-pierre,-21.3393,55.4781,296.8,90,99,4.64,RE,1699129548
215,flin flon,54.7682,-101.865,266.06,73,75,2.57,CA,1699129548
216,gadzhiyevo,69.2551,33.3362,266.23,87,100,3.7,RU,1699129173
217,mournies,35.4764,24.0092,298.37,69,20,9.26,GR,1699129548
218,constantia,44.1833,28.65,288.54,75,100,7.85,RO,1699129188
219,moranbah,-22.0016,148.0466,293.94,76,39,3.65,AU,1699129548
220,minas de marcona,-15.2119,-75.1103,292.13,57,33,6.47,PE,1699129248
221,ghadamis,30.1337,9.5007,293.87,34,0,1.69,LY,1699129549
222,conception bay south,47.4999,-52.9981,284.67,82,97,10.95,CA,1699129213
223,gisborne,-38.6533,178.0042,289.17,63,100,0.74,NZ,1699129549
224,wailua homesteads,22.0669,-159.378,300.59,73,75,7.2,US,1699129180
225,adrar,20.5022,-10.0711,300.75,20,0,3.08,MR,1699129549
226,luderitz,-26.6481,15.1594,288.72,86,0,5.05,NA,1699129217
227,lihue,21.9789,-159.3672,300.92,72,75,7.2,US,1699129176
228,ulladulla,-35.35,150.4667,288.02,85,100,3.25,AU,1699129549
229,sigli,5.3848,95.9609,298.99,84,100,1.44,ID,1699129550
230,ningyang,35.7642,116.7914,289.14,84,100,2.61,CN,1699129550
231,mwingi,-0.9344,38.0601,293.06,89,100,2.57,KE,1699129550
232,vila franca do campo,37.7167,-25.4333,289.38,99,88,6.26,PT,1699129227
233,mount pearl,47.5166,-52.7813,284.34,80,75,10.8,CA,1699129210
234,puerto baquerizo moreno,-0.9,-89.6,301.7,65,40,4.63,EC,1699129193
235,conceicao do araguaia,-8.2578,-49.2647,305.43,47,99,1.48,BR,1699129550
236,masterton,-40.9597,175.6575,288.09,65,75,1.4,NZ,1699129550
237,jaragua do sul,-26.4861,-49.0667,298.09,46,0,2.33,BR,1699129551
238,capim grosso,-11.3811,-40.0128,306.49,37,84,2.23,BR,1699129551
239,port saint john's,-31.6229,29.5448,292.07,92,80,3.21,ZA,1699129221
240,goris,41.9842,44.1158,286.9,52,1,1.77,GE,1699129551
241,lata,40.1629,-8.3327,286.52,80,32,6.41,PT,1699129551
242,mogocha,53.7333,119.7667,256.95,59,0,0.99,RU,1699129551
243,yung shue wan,22.2333,114.1167,298.53,86,15,3.53,HK,1699129551
244,utrik,11.2278,169.8474,301.14,76,53,8.59,MH,1699129209
245,strezhevoy,60.7333,77.5889,268.13,83,100,7.15,RU,1699129551
246,faya-largeau,17.9257,19.1043,300.93,19,2,3.86,TD,1699129552
247,newbiggin-by-the-sea,55.1853,-1.5147,282.72,90,75,3.09,GB,1699129552
248,bengkulu,-3.8004,102.2655,297.38,95,98,1.25,ID,1699129552
249,udachny,66.4167,112.4,253.95,76,100,3.28,RU,1699129193
250,bambari,5.768,20.6757,294.06,94,100,1.24,CF,1699129552
251,quchan,37.106,58.5095,287.3,46,100,0.62,IR,1699129552
252,vidin,43.99,22.8725,285.63,81,7,3.05,BG,1699129552
253,mumbwa,-14.9783,27.0619,297.85,34,7,3.81,ZM,1699129552
254,taksimo,56.3444,114.8794,254.56,83,57,0.99,RU,1699129183
255,tejen,37.3834,60.5054,291.71,28,100,2.83,TM,1699129553
256,tofol,5.3248,163.0078,301.86,78,100,7.09,FM,1699129553
257,pitimbu,-7.4706,-34.8086,301.48,75,11,5.18,BR,1699129553
258,labrador city,52.9463,-66.9114,267.1,63,75,6.69,CA,1699128960
259,eyl,7.9803,49.8164,300.28,80,91,6.55,SO,1699129553
260,effium,6.6292,8.0593,298.99,84,92,2.37,NG,1699129553
261,juuka,63.2333,29.25,275.56,97,100,6.53,FI,1699129554
262,nabire,-3.3667,135.4833,297.2,86,100,1.16,ID,1699129184
263,fortuna,40.5982,-124.1573,295.89,72,0,0.89,US,1699129251
264,penzance,50.1186,-5.5371,283.53,77,99,11.69,GB,1699129554
265,kodiak,57.79,-152.4072,279.88,81,100,4.63,US,1699129170
266,saudarkrokur,65.7461,-19.6394,275.52,87,98,9.14,IS,1699129185
267,pointe-noire,-4.7761,11.8635,299.1,89,100,3.01,CG,1699129554
268,argo,37.6333,22.7333,292.47,66,6,1.72,GR,1699129554
269,dadukou,26.5479,101.7054,286.54,78,0,0.72,CN,1699129554
270,lubang,13.8584,120.124,301.78,77,61,6.49,PH,1699129555
271,talcahuano,-36.7167,-73.1167,288.97,63,0,6.17,CL,1699129555
272,malanje,-9.5402,16.341,291.58,96,61,1.71,AO,1699129555
273,hisarya,42.5,24.7,283.1,74,51,2.29,BG,1699129555
274,todos santos,23.45,-110.2167,303.87,64,100,3.08,MX,1699129555
275,chunskiy,56.0815,99.6342,264.64,48,100,2.64,RU,1699129555
276,iskateley,67.6803,53.1512,268.72,95,11,4.92,RU,1699129248
277,port elizabeth,-33.918,25.5701,289.99,85,95,1.79,ZA,1699129139
278,zhigalovo,54.8097,105.1578,258.89,73,26,1.51,RU,1699129242
279,karasburg,-28.0167,18.75,293.95,20,0,3.37,NA,1699129556
280,dame-marie,18.5667,-74.4167,301.72,70,34,2.05,HT,1699129556
281,serenje,-13.2325,30.2352,292.98,52,10,1.22,ZM,1699129556
282,longyearbyen,78.2186,15.6401,263.06,73,75,4.12,SJ,1699129178
283,nieuw amsterdam,5.8833,-55.0833,308.24,64,20,2.06,SR,1699129556
284,sitka,57.0531,-135.33,284.09,71,75,0.0,US,1699129225
285,sol'-iletsk,51.1631,54.9918,277.76,87,21,3.01,RU,1699129556
286,coquimbo,-29.9533,-71.3436,291.0,59,20,6.17,CL,1699129212
287,idukki,9.85,76.9667,293.92,98,100,0.54,IN,1699129556
288,tambopata,-12.7333,-69.1833,297.09,53,75,3.6,PE,1699129556
289,taulaga,-11.0553,-171.0883,301.17,77,90,6.17,AS,1699129557
290,opuwo,-18.0607,13.84,296.93,25,92,5.17,NA,1699129557
291,mbuji-mayi,-6.15,23.6,295.43,88,22,1.24,CD,1699129557
292,williamson,30.6502,-97.6003,300.17,57,20,5.66,US,1699129557
293,akureyri,65.6835,-18.0878,275.11,87,75,7.72,IS,1699129557
294,gua musang,4.8823,101.9644,296.12,99,65,0.34,MY,1699129557
295,campbell river,50.0163,-125.2446,289.36,77,75,3.09,CA,1699129542
296,uturoa,-16.7333,-151.4333,298.59,84,77,7.81,PF,1699129186
297,greenville,35.6127,-77.3663,297.24,50,0,2.57,US,1699129024
298,mount isa,-20.7333,139.5,297.02,15,100,5.66,AU,1699129238
299,ordynskoye,54.3656,81.8994,273.4,86,87,6.25,RU,1699129558
300,puerto aysen,-45.4,-72.7,278.59,100,100,1.76,CL,1699129558
301,dokkum,53.3222,5.997,283.15,100,75,4.12,NL,1699129558
302,fada,9.5667,8.3,296.1,76,98,0.76,NG,1699129558
303,patong,7.8961,98.2966,298.23,78,99,1.45,TH,1699129253
304,altai,46.3722,96.2583,259.54,75,2,1.78,MN,1699129180
305,thunder bay,48.4001,-89.3168,275.14,48,100,4.63,CA,1699129062
306,chui,-33.6971,-53.4616,289.48,59,0,6.21,UY,1699129198
307,betio village,1.358,172.9211,302.17,72,72,2.61,KI,1699129558
308,puerto deseado,-47.7503,-65.8938,292.83,34,100,11.32,AR,1699129186
309,burgstadt,50.9167,12.8167,282.06,78,100,6.72,DE,1699129559
310,indramayu,-6.3264,108.32,300.79,75,91,3.97,ID,1699129559
311,palikir - national government center,6.9248,158.1611,299.56,89,100,2.57,FM,1699129225
312,guiuan,11.0333,125.7247,301.86,76,79,4.13,PH,1699129559
313,fenghuang,27.9356,109.5996,287.08,95,100,0.92,CN,1699129559
314,brookings,44.3114,-96.7984,288.21,59,75,4.63,US,1699129033
315,merizo village,13.2658,144.6691,300.46,91,99,6.9,GU,1699129559
316,susuman,62.7833,148.1667,259.81,93,100,1.79,RU,1699129206
317,tual,-5.6667,132.75,300.48,81,23,6.67,ID,1699129559
318,pontian kechil,1.4866,103.3896,299.26,91,68,2.04,MY,1699129560
319,poplar bluff,36.757,-90.3929,295.56,48,0,4.12,US,1699129560
320,roma,43.2128,-75.4557,285.98,71,100,2.06,US,1699129265
321,manjeshvar,12.7,74.8833,298.81,92,100,3.67,IN,1699129560
322,nikki,9.9401,3.2108,300.54,40,100,2.64,BJ,1699129560
323,spirit lake,43.4222,-95.1022,286.88,58,35,1.34,US,1699129560
324,krasnogorskiy,54.6025,61.231,273.0,86,92,2.48,RU,1699129560
325,kampene,-3.6,26.6667,293.7,99,100,1.32,CD,1699129228
326,takoradi,4.8845,-1.7554,299.53,87,62,4.03,GH,1699129561
327,urdinarrain,-32.6857,-58.8932,296.3,45,0,1.14,AR,1699129561
328,suva,-18.1416,178.4415,300.86,83,75,3.6,FJ,1699129181
329,maymana,35.9214,64.7836,289.93,23,79,1.81,AF,1699129561
330,selfoss,63.9331,-20.9971,275.74,58,99,8.42,IS,1699129216
331,uhersky brod,49.0251,17.6472,282.24,78,43,5.87,CZ,1699129561
332,illintsi,49.1048,29.2177,287.9,97,100,6.47,UA,1699129561
333,howrah,22.5892,88.3103,298.15,83,40,0.0,IN,1699129220
334,sisimiut,66.9395,-53.6735,269.01,91,99,3.91,GL,1699129562
335,orthez,43.4884,-0.7724,289.01,62,5,9.65,FR,1699129562
336,tocopilla,-22.092,-70.1979,292.91,66,21,4.03,CL,1699129313
337,kapa'a,22.0752,-159.319,301.33,73,75,7.2,US,1699129245
338,pagar alam,-4.0167,103.2667,294.14,97,100,0.52,ID,1699129562
339,taltal,-25.4,-70.4833,290.98,68,23,2.28,CL,1699129563
340,shagonar,51.5333,92.8,263.53,89,100,0.97,RU,1699129563
341,xining,36.6167,101.7667,278.37,27,47,4.81,CN,1699129563
342,helena valley west central,46.6629,-112.0604,283.19,69,40,0.89,US,1699129564
343,gagliano del capo,39.8442,18.3695,290.82,58,7,5.55,IT,1699129564
344,corner brook,48.9667,-57.9484,280.24,93,100,5.24,CA,1699129163
345,lorengau,-2.0226,147.2712,299.64,81,94,1.54,PG,1699129208
346,nizhniy kuranakh,58.8353,125.4869,257.06,92,100,3.78,RU,1699129565
347,kourou,5.1552,-52.6478,304.18,72,5,4.33,GF,1699129260
348,zhuanghe,39.7008,122.9911,284.76,72,99,4.49,CN,1699129565
349,kegeyli shahar,42.7767,59.6078,281.2,26,100,3.59,UZ,1699129565
350,tangalle,6.024,80.7911,298.39,88,100,0.25,LK,1699129194
351,burnie,-41.0667,145.9167,285.62,83,100,1.42,AU,1699129401
352,bundi,25.4417,75.6417,296.75,32,22,2.12,IN,1699129566
353,westport,41.1415,-73.3579,288.96,60,0,2.57,US,1699129249
354,paramonga,-10.6667,-77.8333,294.3,73,56,5.75,PE,1699129566
355,trapani,37.8333,12.6667,291.2,77,0,3.09,IT,1699129566
356,saint-philippe,-21.3585,55.7679,295.43,91,96,3.59,RE,1699129567
357,fortaleza,-3.7227,-38.5247,302.22,70,20,4.63,BR,1699129036
358,severo-yeniseyskiy,60.3725,93.0408,265.14,73,100,5.36,RU,1699129567
359,urzhar,47.093,81.6294,276.2,47,91,1.27,KZ,1699129567
360,venice,27.0998,-82.4543,302.17,45,0,3.58,US,1699129339
361,santa ana,33.7456,-117.8678,305.85,33,40,3.6,US,1699129515
362,arraial do cabo,-22.9661,-42.0278,297.07,83,75,3.6,BR,1699129212
363,bulanash,57.2783,61.9965,268.32,92,99,2.46,RU,1699129568
364,kontcha,7.9667,12.2333,297.83,73,67,0.65,CM,1699129568
365,cadale,2.7603,46.3222,300.85,75,100,3.03,SO,1699129568
366,erenhot,43.6475,111.9767,279.52,53,84,5.44,CN,1699129569
367,kita,13.0349,-9.4895,301.57,20,5,1.24,ML,1699129569
368,tura,25.5198,90.2201,292.58,73,38,1.41,IN,1699129204
369,juatuba,-19.9519,-44.3428,301.57,67,100,1.73,BR,1699129569
370,colby,39.3958,-101.0524,292.49,39,0,4.92,US,1699129385
371,antigonish,45.6169,-61.9986,286.01,74,100,1.34,CA,1699129570
372,boa vista,2.8197,-60.6733,308.14,41,40,5.14,BR,1699129570
373,ballycastle,55.2044,-6.243,283.45,72,100,2.93,GB,1699129570
374,kingston,17.997,-76.7936,305.51,67,20,8.75,JM,1699129046
375,ceeldheer,3.8488,47.1806,300.61,76,76,3.01,SO,1699129570
376,susaki,33.3667,133.2833,288.19,75,100,1.98,JP,1699129570
377,laguna,38.421,-121.4238,299.88,38,0,3.6,US,1699128949
378,smithers,54.7804,-127.1743,277.33,100,100,1.54,CA,1699129210
379,portland,45.5234,-122.6762,292.0,90,100,3.58,US,1699129038
380,chino,34.0122,-117.6889,306.13,21,0,2.57,US,1699129571
381,dire,12.2833,-10.9667,300.7,47,2,1.42,ML,1699129571
382,calatagan,13.8833,120.65,299.58,84,74,4.31,PH,1699129571
383,medzilaborce,49.2719,21.9007,282.12,96,19,2.77,SK,1699129571
384,port hedland,-20.3167,118.5667,298.18,65,87,3.6,AU,1699129572
385,okhotsk,59.3833,143.3,264.08,83,100,5.67,RU,1699129572
386,vorgashor,67.5833,63.95,265.35,90,13,6.87,RU,1699129176
387,st. john's,47.5649,-52.7093,284.8,80,75,10.8,CA,1699129048
388,talakan,50.3167,130.3667,257.91,98,22,0.89,RU,1699129572
389,dudinka,69.4058,86.1778,265.72,93,100,10.28,RU,1699129185
390,mariehamn,60.0973,19.9348,281.07,93,100,7.2,AX,1699129573
391,as samawah,31.332,45.2944,298.9,45,0,5.83,IQ,1699129573
392,malvan,16.0667,73.4667,300.13,81,97,2.17,IN,1699129573
393,lishui,28.4604,119.9103,292.55,98,4,1.16,CN,1699129573
394,nizhnesortymskiy,62.4397,71.7603,266.65,87,22,8.11,RU,1699129574
395,ronne,55.1009,14.7066,283.1,76,75,7.72,DK,1699129574
396,antonio enes,-16.2325,39.9086,297.65,69,98,4.86,MZ,1699129574
397,tamanrasset,22.785,5.5228,296.1,13,0,2.06,DZ,1699129574
398,duki,30.1541,68.5728,291.19,30,30,2.09,PK,1699129574
399,valparaiso,-33.0393,-71.6273,291.48,66,20,7.2,CL,1699129146
400,keetmanshoop,-26.5833,18.1333,296.66,25,0,6.69,NA,1699129575
401,luocheng,29.3848,104.0286,289.82,84,100,1.81,CN,1699129575
402,callao,-12.0667,-77.15,294.31,68,20,7.2,PE,1699129252
403,vinica,41.8828,22.5092,283.64,90,0,0.72,MK,1699129575
404,atlanta,33.749,-84.388,296.25,36,0,4.63,US,1699129441
405,tsiombe,-25.3,45.4833,293.89,70,92,7.99,MG,1699129203
406,valente,-11.4122,-39.4619,306.54,37,64,2.71,BR,1699129576
407,tonj,7.2737,28.6822,296.22,86,100,1.91,SS,1699129576
408,kuybyshev,55.4475,78.3218,269.42,81,100,6.78,RU,1699129576
409,ataq,14.5377,46.8319,294.82,66,8,2.88,YE,1699129576
410,vadso,70.0744,29.7487,264.24,92,75,5.14,NO,1699128968
411,katsuura,35.1333,140.3,293.07,73,100,1.56,JP,1699129178
412,bonthe,7.5264,-12.505,299.53,84,94,2.15,SL,1699129577
413,oltiariq,40.3919,71.4742,283.01,32,10,1.25,UZ,1699129577
414,andergrove,-21.0833,149.1833,296.29,73,57,2.96,AU,1699129577
415,osterburg,52.7833,11.7667,282.09,86,100,8.99,DE,1699129577
416,tanjung pandan,-2.75,107.65,298.53,88,97,1.2,ID,1699129577
417,verkhniy baskunchak,48.2256,46.7217,281.22,81,3,3.52,RU,1699129578
418,fort mcmurray,56.7268,-111.381,271.92,86,100,3.09,CA,1699128934
419,kilindoni,-7.9139,39.6668,299.64,83,77,5.81,TZ,1699129578
420,ust-nera,64.5667,143.2,258.6,98,100,3.36,RU,1699129189
421,oettingen in bayern,48.95,10.6,282.55,81,100,7.64,DE,1699129579
422,belomorsk,64.5232,34.7668,272.22,90,68,5.81,RU,1699129579
423,djamaa,33.5339,5.9931,294.58,38,0,5.84,DZ,1699129579
424,rongelap,11.1635,166.8941,301.44,77,38,9.43,MH,1699129203
425,kalamata,37.0389,22.1142,293.21,70,20,0.89,GR,1699129579
426,mejit,10.2753,170.8646,300.97,79,100,8.93,MH,1699129580
427,al hazm,16.1641,44.7769,297.54,32,60,1.9,YE,1699129259
428,dolinsk,47.35,142.8,272.99,64,5,2.75,RU,1699129580
429,nueva helvecia,-34.3,-57.2333,294.04,46,0,2.99,UY,1699129580
430,morden,49.1919,-98.1014,274.39,75,100,1.54,CA,1699129580
431,al ghayzah,16.2079,52.176,299.74,72,10,2.63,YE,1699129208
432,tamiahua,21.2667,-97.45,299.29,66,100,3.56,MX,1699129580
433,aykhal,66.0,111.5,255.26,84,100,4.61,RU,1699129185
434,ain sukhna,29.6002,32.3167,297.17,58,0,2.74,EG,1699129581
435,cedeira,43.6797,-8.0209,287.02,75,100,16.61,ES,1699129581
436,rio grande,-32.035,-52.0986,295.21,63,46,8.34,BR,1699129205
437,igoumenitsa,39.5039,20.2656,287.97,66,5,0.37,GR,1699129581
438,dakhla,23.6848,-15.958,294.16,78,0,5.66,EH,1699129581
439,cozumel,20.5083,-86.9458,300.9,94,100,6.17,MX,1699129317
440,namibe,-15.1961,12.1522,293.45,85,66,1.59,AO,1699129178
441,bamboo flat,11.7,92.7167,299.2,89,40,1.03,IN,1699129222
442,larache,35.1932,-6.1557,292.98,77,94,4.61,MA,1699129198
443,rahimatpur,17.6,74.2,298.11,49,99,2.75,IN,1699129582
444,turpan,42.9333,89.1667,280.41,12,8,2.7,CN,1699129582
445,canutama,-6.5339,-64.3831,307.24,42,97,1.61,BR,1699129584
446,boyolangu,-8.1181,111.8935,297.35,93,66,0.93,ID,1699129584
447,contamana,-7.3333,-75.0167,303.32,61,95,1.95,PE,1699129584
448,antsiranana,-12.2787,49.2917,298.28,82,100,5.37,MG,1699129207
449,veraval,20.9,70.3667,300.33,58,70,2.54,IN,1699129584
450,luanda,-8.8368,13.2343,299.15,83,75,3.6,AO,1699129567
451,cao bang,22.6667,106.25,296.25,96,100,1.6,VN,1699129585
452,kinablangan,7.6947,126.5503,299.06,86,100,1.79,PH,1699129585
453,redencao,-4.2258,-38.7306,303.16,54,67,5.12,BR,1699129585
454,kruisfontein,-34.0033,24.7314,288.82,83,100,6.17,ZA,1699129182
455,san sebastian de la gomera,28.0916,-17.1133,296.69,68,40,2.06,ES,1699129585
456,valky,49.8387,35.6207,287.69,78,99,9.69,UA,1699129586
457,osprey,27.1962,-82.4904,302.17,47,0,1.79,US,1699129352
458,haiku-pauwela,20.9219,-156.3051,301.58,59,20,8.75,US,1699129178
459,shipunovo,52.1582,82.2173,274.0,65,100,8.92,RU,1699129586
460,el calafate,-50.3408,-72.2768,282.73,51,11,5.68,AR,1699129587
461,huaihua,27.5494,109.9592,289.51,92,99,1.34,CN,1699129587
462,celestun,20.8667,-90.4,301.0,67,100,8.33,MX,1699129587
463,labuan bajo,-8.4964,119.8877,298.09,87,7,1.3,ID,1699129587
464,port macquarie,-31.4333,152.9167,289.76,85,99,2.92,AU,1699129182
465,colgong,25.2667,87.2167,295.7,62,6,1.59,IN,1699129587
466,la paz,-16.5,-68.15,289.03,44,75,5.66,BO,1699129587
467,inari,68.906,27.0288,255.26,84,100,3.71,FI,1699129588
468,susanville,40.4163,-120.653,295.83,37,100,5.66,US,1699129588
469,machulishchy,53.7788,27.5948,282.03,98,100,2.15,BY,1699129588
470,queenstown,-31.8976,26.8753,287.64,89,100,2.53,ZA,1699129140
471,paita,-5.0892,-81.1144,295.31,70,73,8.72,PE,1699129588
472,ponnani,10.767,75.9252,296.77,94,100,1.46,IN,1699129589
473,mangrol,21.1167,70.1167,300.12,59,85,2.89,IN,1699129589
474,sorong,-0.8833,131.25,299.22,82,100,3.06,ID,1699129589
475,kaohsiung,22.6163,120.3133,298.17,86,8,0.51,TW,1699129339
476,tucuma,-0.1833,-50.05,304.34,58,99,4.45,BR,1699129589
477,padang,-0.9492,100.3543,296.18,94,100,1.01,ID,1699129589
478,nelson bay,-32.7167,152.15,293.2,80,99,6.26,AU,1699129251
479,naracoorte,-36.9579,140.7383,280.39,97,9,4.13,AU,1699129590
480,itoman,26.1247,127.6694,298.37,73,8,3.6,JP,1699129590
481,bhisho,-32.8472,27.4422,286.03,90,90,1.43,ZA,1699129239
482,stalbe,57.3719,25.0343,281.59,85,85,3.86,LV,1699129590
483,chaohu,31.6,117.8667,292.53,87,67,2.08,CN,1699129292
484,acapulco de juarez,16.8634,-99.8901,303.04,69,97,3.82,MX,1699129330
485,laojunmiao,39.8333,97.7333,264.71,56,0,3.01,CN,1699129200
486,juba,4.8517,31.5825,295.8,94,100,0.15,SS,1699129591
487,kolonia town,6.964,158.206,300.15,89,100,2.57,FM,1699129591
488,sangin,32.0728,64.8359,290.39,42,7,3.6,AF,1699129591
489,kahta,37.7855,38.6237,288.8,65,72,0.37,TR,1699129592
490,tromso,69.6496,18.957,269.16,63,0,2.06,NO,1699129592
491,segezha,63.7415,34.3222,274.23,87,100,7.21,RU,1699129592
492,robbah,33.2797,6.9098,293.95,43,0,5.16,DZ,1699129365
493,petukhovo,55.0692,67.9019,271.06,85,43,2.74,RU,1699129592
494,burang,30.25,81.1667,273.22,43,0,1.78,CN,1699129196
495,dalandzadgad,43.5708,104.425,263.66,84,32,12.76,MN,1699129593
496,loacan,16.55,120.6667,291.88,93,59,1.75,PH,1699129593
497,mirny,62.5353,113.9611,254.28,94,66,2.22,RU,1699129593
498,berezovyy,51.6667,135.7,261.98,49,3,4.55,RU,1699129199
499,cabo san lucas,22.8909,-109.9124,304.36,54,75,3.09,MX,1699128915
500,vernon,50.2581,-119.2691,282.2,88,100,1.54,CA,1699129169
501,saldanha,-33.0117,17.9442,289.18,88,100,6.32,ZA,1699129594
502,dunedin,-45.8742,170.5036,281.93,91,89,0.45,NZ,1699129260
503,essaouira,31.5125,-9.77,292.87,72,0,2.57,MA,1699129594
504,beau vallon,-20.4189,57.6953,298.83,78,100,0.0,MU,1699129594
505,san antonio,29.4241,-98.4936,300.69,51,40,4.63,US,1699129490
506,ebon,4.582,168.6964,302.26,72,78,6.52,MH,1699129595
507,camden,39.7835,-74.9663,289.12,59,100,1.24,US,1699129595
508,champerico,14.3,-91.9167,304.45,70,100,1.49,GT,1699129244
509,konduga,11.6558,13.4213,300.38,19,0,2.41,NG,1699129596
510,gagarin,55.5529,34.9954,281.24,94,100,7.08,RU,1699129312
511,beroroha,-21.6667,45.1667,297.0,60,64,4.74,MG,1699129596
512,valley city,46.9233,-98.0032,276.44,100,100,3.09,US,1699129596
513,lively,46.4334,-81.1498,278.72,60,9,2.75,CA,1699129596
514,tangzhai,34.4328,116.5911,289.38,91,100,4.58,CN,1699129596
515,pervomayskiy,53.2485,40.2871,280.69,76,100,7.24,RU,1699129597
516,huarmey,-10.0681,-78.1522,295.14,70,99,5.65,PE,1699129201
517,mecitozu,40.52,35.2953,284.42,49,8,1.82,TR,1699129597
518,kavaratti,10.5669,72.642,301.08,78,92,3.46,IN,1699129598
519,starokostiantyniv,49.7576,27.2034,284.03,92,100,6.79,UA,1699129598
520,massena,44.9281,-74.8919,283.21,66,75,2.06,US,1699129598
521,midvagur,62.0511,-7.1939,281.61,87,75,3.09,FO,1699129226
522,nikol'sk,53.7189,46.0712,274.89,82,24,3.63,RU,1699129598
523,quibdo,5.6947,-76.6611,306.34,55,40,3.6,CO,1699129598
524,al bawiti,28.3492,28.8659,296.66,27,0,3.06,EG,1699129599
525,sambava,-14.2667,50.1667,297.37,88,100,2.26,MG,1699129599
526,soio,-6.1349,12.3689,299.0,89,100,3.2,AO,1699129599
527,saint-paul,-21.0096,55.2707,297.04,100,100,2.11,RE,1699129599
528,sosnovo-ozerskoye,52.5249,111.5418,258.58,87,5,1.45,RU,1699129599
529,arteche,12.2645,125.4048,299.34,88,26,1.83,PH,1699129600
530,khanty-mansiysk,61.0042,69.0019,267.21,73,0,4.02,RU,1699129460
531,ancud,-41.8697,-73.8203,284.11,98,100,5.63,CL,1699129117
532,santo antonio,-6.3106,-35.4789,300.83,63,45,6.59,BR,1699129600
533,joao pinheiro,-17.7425,-46.1725,299.01,66,100,5.27,BR,1699129565
534,dien bien phu,21.3833,103.0167,294.43,96,57,0.63,VN,1699129600
535,shiqian,27.5225,108.2281,290.3,96,100,1.16,CN,1699129600
536,nadi,-17.8,177.4167,301.15,74,40,2.57,FJ,1699129600
537,danghara,38.0958,69.34,285.27,19,85,2.68,TJ,1699129594
538,newman,37.3138,-121.0208,299.85,39,23,0.45,US,1699129047
539,kirs,59.3388,52.2447,270.71,77,100,1.46,RU,1699129601
540,sao jose da coroa grande,-8.8978,-35.1478,299.63,76,5,5.52,BR,1699129222
541,salekhard,66.53,66.6019,266.07,84,19,7.39,RU,1699129601
542,touros,-5.1989,-35.4608,299.93,76,35,5.42,BR,1699129217
543,qarazhal,48.0078,70.7903,279.97,65,100,1.56,KZ,1699129601
544,muisne,0.6,-80.0333,299.57,78,67,4.7,EC,1699129601
545,saynshand,44.8824,110.1163,271.65,87,100,5.76,MN,1699129601
546,toulepleu guere,6.574,-8.4259,295.95,95,11,1.27,CI,1699129602
547,richards bay,-28.783,32.0377,294.74,74,52,7.83,ZA,1699129240
548,yerofey pavlovich,53.9667,121.9667,257.34,63,9,0.83,RU,1699129602
549,box elder,41.5005,-112.8764,286.63,53,84,1.94,US,1699129602
550,abu,24.6,72.7,292.42,36,45,0.73,IN,1699129602
551,yuncheng,35.0231,110.9928,285.34,93,100,1.34,CN,1699129602
552,kharkhorin,47.1975,102.8238,256.23,84,36,2.88,MN,1699129603
553,urangan,-25.3,152.9,295.17,70,34,4.71,AU,1699129213
554,bathsheba,13.2167,-59.5167,300.49,94,40,7.2,BB,1699129603
555,hobyo,5.3505,48.5268,300.53,78,100,3.16,SO,1699129603
556,prince george,53.9166,-122.753,278.85,94,100,3.6,CA,1699129603
